id,superficie,fecha,lat,lng,latlng_explicit,idcomunidad,idprovincia,idmunicipio,municipio,causa,causa_supuesta,causa_desc,muertos,heridos,time_ctrl,time_ext,personal,medios,gastos,perdidas
2015030001,2.5,2015-01-01,38.85495351187207,-0.1295428557606917,1.0,9,3,102,PEGO,2,0,12,0,0,153,364,28,6,0,448
2015100002,3.32,2015-01-01,40.11093739121023,-5.727705748364933,1.0,14,10,68,CUACOS DE YUSTE,4,0,1,0,0,130,1510,12,2,0,0
2015320001,4.2,2015-01-01,42.36631603126749,-7.325569697661298,1.0,3,32,70,SAN XOAN DE RIO,4,1,1,0,0,135,160,5,1,0,0
2015320002,2.24,2015-01-01,41.94438744599981,-7.97465528527873,1.0,3,32,51,MUIÑOS,4,1,1,0,0,185,250,5,1,0,0
2015360001,6.88,2015-01-01,42.622506655392826,-8.258003174558954,1.0,3,36,52,SILLEDA,4,1,5,0,0,133,170,6,2,1108,0
2015490001,1.75,2015-01-01,42.10155305461058,-6.4908007474991125,1.0,17,49,181,ROSINOS DE LA REQUEJADA,4,0,2,0,0,90,105,4,0,0,0
2015100006,1.15,2015-01-02,40.1893955424163,-6.803535094450584,1.0,14,10,164,SAN MARTÍN DE TREVEJO,4,1,2,0,0,111,131,15,0,0,0
2015320004,2.5,2015-01-02,41.97392165121973,-7.906519632706947,1.0,3,32,51,MUIÑOS,4,1,14,0,0,122,138,8,1,0,0
2015330003,1.5,2015-01-02,42.941388854482575,-6.744662088038517,1.0,5,33,28,IBIAS,5,0,0,0,0,77,107,3,0,0,0
2015050002,2.6,2015-01-03,40.32593616491278,-4.578143793902789,1.0,17,5,55,CASILLAS,4,0,1,0,0,110,260,53,4,0,0
2015100007,4.84,2015-01-03,39.210483641224336,-6.120103380659472,1.0,14,10,126,MONTÁNCHEZ,4,1,1,0,0,195,255,7,1,0,0
2015100008,14.98,2015-01-03,40.22204992252187,-6.826869164031529,1.0,14,10,72,ELJAS,4,1,2,0,0,359,1132,24,1,0,0
2015330006,5.0,2015-01-03,43.07424421258151,-6.19489839143687,1.0,5,33,68,SOMIEDO,4,1,2,0,0,93,228,0,0,0,0
2015100009,1.85,2015-01-04,40.168190854498704,-5.937424254421784,1.0,14,10,154,REBOLLAR,4,1,1,0,0,110,230,15,2,0,0
2015100010,1.02,2015-01-04,39.21651943952656,-6.118281609253745,1.0,14,10,126,MONTÁNCHEZ,4,1,1,0,0,110,130,7,1,0,0
2015100014,32.14,2015-01-04,40.2606177906861,-5.733512291912015,1.0,14,10,183,TORNAVACAS,4,1,2,0,0,1302,1342,14,2,0,0
2015240001,4.99,2015-01-04,42.39913893094218,-6.3708844156837845,1.0,17,24,90,LUCILLO,4,1,1,0,0,0,1,0,0,0,0
2015320006,22.0,2015-01-04,42.17169391626784,-6.964946742094794,1.0,3,32,86,VIANA DO BOLO,4,1,5,0,0,335,410,21,2,0,0
2015320009,1.17,2015-01-04,42.12673158073911,-7.206388554634262,1.0,3,32,92,VILARIÑO DE CONSO,4,1,1,0,0,142,147,3,0,0,0
2015320011,10.15,2015-01-04,42.327712269974526,-6.766360015669265,1.0,3,32,17,CARBALLEDA DE VALDEORRAS,3,1,30,0,0,405,472,17,2,0,0
2015320013,1.0,2015-01-04,42.302632481221686,-7.70261021665597,1.0,3,32,31,ESGOS,5,0,0,0,0,75,88,7,1,0,0
2015390002,7.59,2015-01-04,43.28666075587663,-3.6438179976770098,1.0,6,39,7,ARREDONDO,4,1,2,0,0,315,480,1,0,0,1499
2015320014,1.32,2015-01-05,42.23102962898543,-7.357895333625986,1.0,3,32,29,CHANDREXA DE QUEIXA,5,0,0,0,0,66,100,9,0,0,0
2015320016,1.35,2015-01-05,41.92460877554463,-7.7904864322123055,1.0,3,32,5,BALTAR,4,0,2,0,0,50,55,4,1,0,0
2015320017,2.5,2015-01-05,42.290782623829074,-8.215827357869205,1.0,3,32,46,MELÓN,4,1,2,0,0,175,195,9,0,0,0
2015330009,3.45,2015-01-05,43.08384453432269,-5.73515020377382,1.0,5,33,33,LENA,4,0,2,0,0,59,86,4,1,0,0
2015360003,4.9,2015-01-05,42.20553488592798,-8.217863740643118,1.0,3,36,14,CRECENTE,4,0,1,0,0,159,199,11,1,2553,332
2015240002,3.8,2015-01-06,42.64964320129506,-6.1068294785683,1.0,17,24,210,VILLAGATON,4,0,2,0,0,166,166,8,1,0,0
2015320020,3.15,2015-01-07,42.295007938727466,-6.81278598139193,1.0,3,32,17,CARBALLEDA DE VALDEORRAS,4,1,5,0,0,100,107,2,0,0,0
2015320022,1.04,2015-01-07,42.127073497716346,-7.0051382495836805,1.0,3,32,86,VIANA DO BOLO,4,1,1,0,0,79,88,5,0,0,0
2015490003,1.0,2015-01-07,42.132290809793616,-6.616392396467519,1.0,17,49,189,S JUSTO,4,0,1,0,0,265,415,0,0,0,0
2015100020,10.74,2015-01-08,40.249808332164896,-6.576355271284203,1.0,14,10,84,GATA,4,1,2,0,0,185,440,17,2,0,0
2015130002,1.0,2015-01-08,39.2227254746657,-3.499525922916809,1.0,11,13,18,ARENAS DE SAN JUAN,2,0,12,0,0,109,134,5,1,0,0
2015240003,8.17,2015-01-08,42.75908673620442,-6.384131538581348,1.0,17,24,83,IGUEÑA,4,1,5,0,0,242,270,3,0,0,0
2015270005,1.4,2015-01-08,42.75559229388932,-7.063860527737061,1.0,3,27,37,"NOGAIS, AS",4,1,2,0,0,95,157,7,0,0,0
2015320025,5.9,2015-01-08,42.25511438604395,-6.876074923720407,1.0,3,32,83,"VEIGA, A",4,1,5,0,0,312,344,19,2,0,9317
2015390005,1.7,2015-01-08,43.20029547734532,-4.219925392992645,1.0,6,39,14,CABUÉRNIGA,4,0,2,0,0,0,0,0,0,0,262
2015390006,6.7,2015-01-08,43.19948992997188,-4.244550743376229,1.0,6,39,14,CABUÉRNIGA,4,0,2,0,0,0,0,0,0,0,1033
2015100024,2.35,2015-01-09,39.466886321996974,-5.42562650788321,1.0,14,10,134,NAVEZUELAS,2,1,10,0,0,238,6148,29,3,0,0
2015130003,6.5,2015-01-09,38.99108605657677,-4.090576725406651,1.0,11,13,7,ALCOLEA DE CALATRAVA,5,0,0,0,0,91,124,9,1,0,0
2015240005,126.87,2015-01-09,42.31145835443323,-6.656258423426309,1.0,17,24,16,BENUZA,4,0,5,0,0,0,1,0,0,0,0
2015240006,9.15,2015-01-09,42.33835520764116,-6.667782718573127,1.0,17,24,16,BENUZA,4,0,2,0,0,0,17,0,0,0,0
2015320029,4.4,2015-01-09,41.86796244784912,-7.883493149781799,1.0,3,32,16,CALVOS DE RANDÍN,4,1,2,0,0,138,193,16,2,0,5828
2015330019,2.5,2015-01-09,43.41078869873186,-4.913489576229213,1.0,5,33,36,LLANES,4,0,2,0,0,202,206,7,1,0,0
2015330022,1.08,2015-01-09,43.4784817846959,-6.319567815053987,1.0,5,33,59,SALAS,4,0,2,0,0,185,203,7,1,0,0
2015390007,43.7,2015-01-09,43.17463971758792,-3.747896584995908,1.0,6,39,97,VEGA DE PAS,4,0,2,0,0,0,310,0,0,0,6731
2015490004,1.5,2015-01-09,42.17919426550116,-6.894155807580055,1.0,17,49,162,PORTO,4,0,2,0,0,224,945,14,0,0,0
2015050004,9.5,2015-01-10,40.46012782124557,-4.9558389011044754,1.0,17,5,157,NAVALACRUZ,4,0,2,0,0,340,360,5,1,0,0
2015060001,1.45,2015-01-10,38.05693579681227,-6.363022578581574,1.0,14,6,24,CABEZA LA VACA,2,1,80,0,0,135,209,5,1,0,0
2015100026,2.76,2015-01-10,40.19359337246273,-6.785672385766954,1.0,14,10,210,VILLAMIEL,4,1,1,0,0,147,192,16,1,0,0
2015100028,1.2,2015-01-10,40.13629123573675,-5.863920016075512,1.0,14,10,196,VALDASTILLAS,4,1,1,0,0,186,187,3,1,0,0
2015180002,1.18,2015-01-10,37.00901339222217,-3.2687104390477257,1.0,4,18,180,TREVÉLEZ,2,0,82,0,0,206,326,14,0,142,18
2015310002,1.0,2015-01-10,41.93844679904967,-1.4234218456089371,1.0,13,31,78,CORTES,5,0,0,0,0,-1163,82,3,1,0,0
2015330024,5.0,2015-01-10,43.40158357221956,-5.004557625124637,1.0,5,33,36,LLANES,4,0,2,0,0,140,152,9,0,0,0
2015330025,13.5,2015-01-10,43.12230712862144,-6.459872703606081,1.0,5,33,11,CANGAS DEL NARCEA,4,0,2,0,0,82,93,4,2,0,0
2015390008,8.299999999999999,2015-01-10,43.16073507572133,-4.358417471467013,1.0,6,39,89,TUDANCA,4,1,2,0,0,0,495,0,0,0,1445
2015100029,15.23,2015-01-11,40.15120106903667,-5.683852507309711,1.0,14,10,14,ALDEANUEVA DE LA VERA,4,0,2,0,0,290,380,13,1,0,0
2015240008,2.0,2015-01-11,42.74206502500496,-6.840147388636356,1.0,17,24,209,VILLAFRANCA DEL BIERZO,4,1,5,0,0,0,0,0,0,0,0
2015240009,1.3,2015-01-11,42.67650859741232,-6.835821670285154,1.0,17,24,171,TRABADELO,3,0,99,0,0,0,0,0,0,0,0
2015330028,1.0,2015-01-11,43.39494521751743,-6.58541448491437,1.0,5,33,73,TINEO,4,1,2,0,0,58,76,3,1,0,0
2015330029,5.0,2015-01-11,43.16350139110665,-6.486752058516873,1.0,5,33,11,CANGAS DEL NARCEA,4,1,2,0,0,179,189,5,1,0,0
2015100031,2.54,2015-01-12,40.25111507009419,-6.586624559805772,1.0,14,10,84,GATA,4,1,2,0,0,200,350,19,1,0,0
2015320033,2.0,2015-01-12,42.28431681558428,-7.164277898830685,1.0,3,32,44,MANZANEDA,4,1,2,0,0,69,73,5,1,0,0
2015330030,6.0,2015-01-12,43.12244229196222,-6.457851169233607,1.0,5,33,11,CANGAS DEL NARCEA,4,1,2,0,0,240,270,5,1,0,0
2015340001,1.4,2015-01-12,42.754074055280896,-4.313341619313756,1.0,17,34,4,AGUILAR DE CAMPOO,4,1,1,0,0,1,2,0,0,0,0
2015370002,3.81,2015-01-12,40.41556852891911,-5.700098267336264,1.0,17,37,163,HOYA LA,2,1,12,0,0,210,270,10,1,0,0
2015130006,4.9,2015-01-13,39.06555740885497,-3.825708094513762,1.0,11,13,31,CARRIÓN DE CALATRAVA,4,0,99,0,0,41,95,7,1,0,0
2015240010,6.17,2015-01-13,42.26164401361844,-6.7350052365879085,1.0,17,24,67,ENCINEDO,4,1,5,0,0,0,0,0,0,0,0
2015310004,7.6,2015-01-13,43.14369742506959,-1.637729669663322,1.0,13,31,54,BERTIZARANA,2,0,22,0,0,-1186,239,16,5,0,0
2015320036,12.87,2015-01-13,42.20772180165362,-7.225466961161863,1.0,3,32,92,VILARIÑO DE CONSO,4,1,1,0,0,256,285,4,0,0,0
2015330031,3.7,2015-01-13,43.204556266170606,-6.573665458063319,1.0,5,33,11,CANGAS DEL NARCEA,4,1,2,0,0,209,229,3,2,0,0
2015330032,2.2,2015-01-13,43.04840511518219,-6.465406330530349,1.0,5,33,11,CANGAS DEL NARCEA,4,0,2,0,0,70,94,5,1,0,0
2015330033,1.5,2015-01-13,43.18355372726163,-5.474031651196868,1.0,5,33,67,SOBRESCOBIO,4,1,2,0,0,171,181,2,0,0,0
2015330034,3.3,2015-01-13,43.24331637018844,-5.577077121783518,1.0,5,33,32,LAVIANA,4,1,2,0,0,120,133,9,1,0,0
2015390009,2.2,2015-01-13,43.23693745628309,-4.048035750609804,1.0,6,39,25,"CORRALES DE BUELNA, LOS",4,0,2,0,0,160,183,10,0,540,338
2015390010,2.0,2015-01-13,43.24624566154808,-4.518562431034126,1.0,6,39,34,LAMASÓN,4,1,2,0,0,0,360,0,0,0,313
2015390011,22.08,2015-01-13,43.26998889131238,-4.3927605717658,1.0,6,39,63,RIONANSA,4,1,2,0,0,225,255,13,0,1213,3421
2015390012,25.51,2015-01-13,43.21062992054543,-3.854836412579062,1.0,6,39,98,VILLACARRIEDO,4,1,2,0,0,280,840,5,1,0,3929
2015310005,4.0,2015-01-14,42.731302750090585,-1.137515872994121,1.0,13,31,181,NAVASCUÉS,4,0,1,0,0,-910,169,3,1,0,0
2015390013,17.5,2015-01-14,43.17144230471885,-3.980455250003175,1.0,6,39,4,ARENAS DE IGUÑA,4,0,2,0,0,190,265,5,0,333,3093
2015390014,36.9,2015-01-14,43.14754775714415,-3.849320416251886,1.0,6,39,71,SAN PEDRO DEL ROMERAL,4,1,2,0,0,450,1355,22,0,3951,7676
2015390015,31.5,2015-01-14,43.079832460868765,-4.591996054566588,1.0,6,39,50,PESAGUERO,4,1,4,0,0,1310,3200,23,2,3708,13434
2015390016,2.16,2015-01-14,43.25073676294658,-3.674298157522592,1.0,6,39,67,RUESGA,4,1,2,0,0,0,750,0,0,0,339
2015130010,11.0,2015-01-15,39.06714247798439,-3.815589205705102,1.0,11,13,31,CARRIÓN DE CALATRAVA,4,0,99,0,0,85,147,7,1,0,0
2015330037,2.0,2015-01-15,43.224608326720336,-5.555407999732568,0.0,5,33,32,LAVIANA,5,0,0,0,0,91,200,7,2,0,0
2015390017,4.11,2015-01-15,43.275443316600885,-3.782133128512302,1.0,6,39,74,SANTA MARIA DE CAYÓN,4,1,2,0,0,0,120,0,0,0,645
2015390018,4.5,2015-01-15,43.205934516269664,-3.585026006250026,1.0,6,39,83,SOBA,4,1,2,0,0,90,120,7,0,254,1202
2015390019,14.6,2015-01-15,43.17432336403825,-3.794818073652269,1.0,6,39,97,VEGA DE PAS,4,1,2,0,0,0,0,0,0,0,2248
2015390020,2.0,2015-01-15,43.36371869231549,-3.220349177179372,1.0,6,39,20,CASTRO-URDIALES,4,1,1,0,0,60,150,5,1,193,1776
2015390021,3.75,2015-01-15,43.140155224901065,-4.2847240454847215,1.0,6,39,86,"TOJOS, LOS",4,1,2,0,0,120,130,5,0,153,578
2015390022,3.5,2015-01-15,43.1527560345713,-4.33246206689882,1.0,6,39,14,CABUÉRNIGA,4,1,2,0,0,90,100,9,0,243,547
2015460023,2.8,2015-01-15,39.34378885347954,-0.3821352041225758,1.0,9,46,250,VALENCIA,4,0,99,0,0,132,132,6,1,0,0
2015070003,2.1,2015-01-16,40.03130825232236,4.026704865226212,1.0,15,7,37,"MERCADAL, ES",4,0,2,0,0,270,950,36,7,0,0
2015460004,1.5,2015-01-16,39.71291193257287,-0.2695378078028094,1.0,9,46,220,SAGUNT/SAGUNTO,2,0,12,0,0,114,339,32,6,0,0
2015490005,1.1,2015-01-22,41.84806210127857,-6.186049680655798,1.0,17,49,176,RIOFRIO DE ALISTE,4,0,99,0,0,75,105,1,0,0,0
2015110002,2.22,2015-01-25,36.282069336500506,-5.283038597169019,1.0,4,11,33,SAN ROQUE,4,0,19,0,0,189,958,31,4,0,0
2015450014,1.5,2015-01-25,39.61642347177667,-3.1262416104106605,1.0,11,45,135,"PUEBLA DE ALMORADIEL, LA",4,1,99,0,0,167,187,1,0,0,0
2015460007,4.0,2015-01-25,39.61752092968905,-0.2702640676185,1.0,9,46,220,SAGUNT/SAGUNTO,4,0,99,0,0,38,88,18,3,0,0
2015100040,1.27,2015-01-26,40.19608658126347,-5.82313900860797,1.0,14,10,35,CABEZUELA DEL VALLE,4,1,1,0,0,149,268,8,0,0,0
2015100043,1.26,2015-01-27,40.21999328234086,-5.779984917430041,1.0,14,10,35,CABEZUELA DEL VALLE,4,1,1,0,0,135,1425,10,0,0,0
2015310014,1.0,2015-01-27,42.54207624157716,-1.9812863889391672,1.0,13,31,12,ALLO,4,0,99,0,0,-1098,172,2,1,0,0
2015050009,2.0,2015-01-28,40.17067961983647,-5.187707864802766,1.0,17,5,14,ARENAS DE SAN PEDRO,4,0,1,0,0,47,107,9,0,0,0
2015100046,1.32,2015-01-28,40.13821593326344,-5.71878573535094,1.0,14,10,14,ALDEANUEVA DE LA VERA,4,1,2,0,0,110,179,11,1,0,0
2015320037,1.4,2015-01-28,41.97463851072861,-7.263346168318929,1.0,3,32,71,RIÓS,4,1,1,0,0,60,75,5,0,0,0
2015130013,10.0,2015-01-29,38.83874402882697,-3.043946187203092,1.0,11,13,10,ALHAMBRA,2,1,10,0,0,205,205,9,1,0,0
2015240012,5.5,2015-01-29,42.93830121043224,-5.927463897188988,1.0,17,24,164,SENA DE LUNA,4,1,2,0,0,0,0,0,0,0,0
2015330038,9.96,2015-01-29,43.28327752153546,-5.959926444374452,1.0,5,33,64,SANTO ADRIANO,4,0,2,0,0,210,220,12,2,0,0
2015330040,10.52,2015-01-29,43.30934618819419,-5.931539231550428,1.0,5,33,44,OVIEDO,4,0,2,0,0,113,233,14,4,0,0
2015180004,7.08,2015-01-30,37.60406867657729,-2.779261434514846,1.0,4,18,29,BENAMAUREL,4,0,2,0,0,65,110,13,1,3,0
2015180005,1.37,2015-01-30,36.733796785025696,-3.5725216219158926,1.0,4,18,173,SALOBREÑA,4,0,4,0,0,200,740,21,3,419,21
2015450027,4.8,2015-01-30,39.90662773092924,-3.868660449469151,1.0,11,45,168,TOLEDO,4,1,1,0,0,134,199,18,2,0,0
2015070005,2.25,2015-02-01,39.05400021543608,1.4332958527262651,1.0,15,7,50,SANT JOAN DE LABRITJA,2,0,82,0,0,365,1550,50,0,0,0
2015460010,1.5,2015-02-03,39.27474673016706,-0.5558282921802135,1.0,9,46,26,ALFARP,4,0,10,0,0,126,255,21,3,0,0
2015120002,2.0,2015-02-06,39.81689194854714,-0.2424002086294605,1.0,9,12,126,"VALL D' UIXÓ, LA",3,0,99,0,0,106,286,38,6,0,0
2015490007,1.37,2015-02-06,42.0648363266458,-6.182156510027462,1.0,17,49,120,MOLEZUELAS DE LA CARBALLEDA,4,0,1,0,0,75,95,5,1,0,0
2015100054,1.05,2015-02-08,40.24269390153958,-6.581181884084446,1.0,14,10,84,GATA,4,0,99,0,0,202,212,13,1,0,0
2015100057,17.87,2015-02-09,40.16917840621591,-5.658986886828555,1.0,14,10,91,GUIJO DE SANTA BÁRBARA,4,1,2,0,0,256,1585,8,1,0,0
2015130015,5.0,2015-02-09,39.346810628809926,-2.8601792398911443,1.0,11,13,78,SOCUÉLLAMOS,2,1,20,0,0,150,172,11,1,0,0
2015410001,1.5,2015-02-09,37.672070954700224,-6.0182796884906224,1.0,4,41,27,CASTIBLANCO DE LOS ARROYOS,4,0,99,0,0,132,187,13,1,0,0
2015450033,1.2,2015-02-09,39.64165036284484,-4.990828866693072,1.0,11,45,108,"NAVA DE RICOMALILLO, LA",4,1,1,0,0,66,76,4,1,0,0
2015100060,3.73,2015-02-10,39.65545014479829,-6.537885890694017,1.0,14,10,82,GARROVILLAS DE ALCONÉTAR,2,1,10,0,0,110,180,7,1,0,0
2015320038,2.67,2015-02-11,41.96132585101724,-7.008206825867818,1.0,3,32,48,"MEZQUITA, A",4,1,1,0,0,55,75,6,0,0,0
2015500006,11.94,2015-02-11,42.30357708101239,-1.2617205670759335,1.0,10,50,267,UNCASTILLO,4,0,2,0,0,201,231,2,0,0,36
2015130023,1.0,2015-02-13,39.072730526003056,-3.8568881608343393,1.0,11,13,40,FERNÁN CABALLERO,5,0,0,0,0,219,244,12,2,0,0
2015280009,2.52,2015-02-13,40.14266107135624,-3.5319315946074825,1.0,16,28,52,CHINCHÓN,4,0,99,0,0,208,209,10,2,0,0
2015380001,8.26,2015-02-13,28.216896269842373,-16.57341424009005,1.0,12,38,5,ARICO,2,0,40,0,0,3449,6019,38,2,0,0
2015220007,1.05,2015-02-14,41.57830900574225,0.3121917422946632,1.0,10,22,254,ZAIDÍN,2,0,40,0,0,45,90,7,1,0,367
2015280010,1.31,2015-02-14,40.17746539814896,-3.7568118182380528,1.0,16,28,150,TORREJÓN DE VELASCO,4,1,99,0,0,92,93,12,3,0,0
2015460011,12.0,2015-02-16,39.55258448256915,-0.2947717061528747,1.0,9,46,250,VALENCIA,4,0,10,0,0,285,351,148,15,0,0
2015100068,6.5,2015-02-17,40.097251062164005,-5.746512442473244,1.0,14,10,68,CUACOS DE YUSTE,4,1,2,0,0,178,218,12,1,0,0
2015350004,1.3,2015-02-17,27.903470698369617,-15.512586309563106,1.0,12,35,2,AGÜIMES,5,0,0,0,0,68,120,13,3,0,0
2015100070,1.4,2015-02-18,40.20324406983208,-6.790908423373468,1.0,14,10,164,SAN MARTÍN DE TREVEJO,4,1,2,0,0,120,150,13,1,0,0
2015250028,3.2,2015-02-18,42.13874130288934,1.024689046926417,1.0,2,25,115,ISONA I CONCA DELLÀ,5,0,0,0,0,90,100,6,1,0,0
2015320042,1.4,2015-02-18,41.97961818630826,-7.182448775320911,1.0,3,32,34,"GUDIÑA, A",4,1,1,0,0,60,90,13,0,0,0
2015350005,1.5,2015-02-18,27.929047742867468,-15.57363832028044,1.0,12,35,19,SAN BARTOLOMÉ DE TIRAJANA,3,0,20,0,0,222,1059,90,7,0,0
2015370005,6.92,2015-02-18,40.94528756678468,-6.484941939530713,1.0,17,37,377,YECLA DE YELTES,4,1,4,0,0,124,229,32,2,0,0
2015370006,16.33,2015-02-18,41.20390220299258,-6.524435490012596,1.0,17,37,250,PEREÑA DE LA RIBERA,2,1,12,0,0,200,260,13,1,0,0
2015490012,2.33,2015-02-18,41.74307291237172,-6.340759200255571,1.0,17,49,209,S VITERO,4,0,2,0,0,75,90,3,1,0,0
2015040008,3.05,2015-02-19,36.76080909429178,-2.717055011193662,1.0,4,4,902,"EJIDO, EL",3,0,30,0,0,201,1785,11,1,0,0
2015100072,1.91,2015-02-19,40.062648957047344,-5.789576913661658,1.0,14,10,191,TORREMENGA,4,1,99,0,0,157,287,14,1,0,0
2015100073,1.87,2015-02-19,40.1923237436196,-6.793154175416382,1.0,14,10,210,VILLAMIEL,4,1,1,0,0,92,152,6,0,0,0
2015130027,1.0,2015-02-19,39.07062106142304,-3.835904947232162,1.0,11,13,31,CARRIÓN DE CALATRAVA,4,0,99,0,0,141,141,4,1,0,0
2015250042,1.6,2015-02-19,42.402366291869285,1.112344759604204,1.0,2,25,209,SORT,5,0,0,0,0,90,231,10,2,0,0
2015100074,1.0,2015-02-20,40.11076413352273,-5.6985920928852565,1.0,14,10,14,ALDEANUEVA DE LA VERA,2,1,21,0,0,84,204,14,2,0,0
2015100467,6.69,2015-02-20,39.697814858908295,-5.948689462940948,1.0,14,10,103,JARAICEJO,3,1,34,0,0,40,60,31,6,0,0
2015450044,3.83,2015-02-20,39.83073133979983,-5.14710749425168,1.0,11,45,7,ALCOLEA DE TAJO,4,1,99,0,0,62,62,2,1,0,0
2015500007,7.69,2015-02-20,41.84184673871105,-1.6871378594366355,1.0,10,50,280,VERA DE MONCAYO,2,0,84,0,0,131,221,21,2,0,8
2015100076,2.0,2015-02-21,40.134568324538606,-5.692950226357036,1.0,14,10,14,ALDEANUEVA DE LA VERA,2,1,80,0,0,127,527,7,1,0,0
2015100077,1.14,2015-02-21,40.17966178380236,-6.96900564882235,1.0,14,10,205,VALVERDE DEL FRESNO,5,0,0,0,0,63,143,6,0,0,0
2015450046,2.4,2015-02-21,39.6102241135216,-3.958298585830816,1.0,11,45,124,ORGAZ,2,0,22,0,0,75,127,9,2,0,0
2015470003,1.8,2015-02-21,42.06211732390089,-5.496961694884745,1.0,17,47,134,ROALES DE CAMPOS,2,1,84,0,0,0,0,0,0,0,0
2015050011,3.86,2015-02-22,40.17653451617179,-5.176750923171881,1.0,17,5,14,ARENAS DE SAN PEDRO,4,1,2,0,0,225,285,11,2,0,0
2015120003,3.5,2015-02-22,40.18134433775228,-0.0453438416166042,1.0,9,12,124,VALL D' ALBA,3,0,20,0,0,159,1419,46,5,0,0
2015420010,2.79,2015-02-22,41.550744703554734,-1.9934304149552176,1.0,17,42,51,CARABANTES,4,0,1,0,0,0,0,0,0,0,0
2015450048,1.9,2015-02-22,39.88019219172384,-4.9194244351051335,1.0,11,45,28,CALERA Y CHOZAS,2,1,84,0,0,89,107,3,1,0,0
2015490017,2.15,2015-02-22,41.95921629422538,-6.710632547290786,1.0,17,49,145,PEDRALBA DE LA PRADERIA,4,0,1,0,0,110,140,0,0,0,0
2015020011,2.47,2015-02-23,38.30713507428247,-2.241912058942285,1.0,11,2,86,YESTE,4,0,2,0,0,143,746,26,2,0,0
2015100080,8.88,2015-02-23,40.12438877812363,-5.765171041593067,1.0,14,10,79,GARGANTA LA OLLA,2,1,10,0,0,141,231,24,3,0,0
2015100083,2.84,2015-02-24,40.0758543300554,-5.757248822501473,1.0,14,10,104,JARAÍZ DE LA VERA,4,1,99,0,0,122,167,13,2,0,0
2015180007,13.42,2015-02-24,36.82137315524185,-3.691410270314098,1.0,4,18,120,LENTEGÍ,2,0,12,0,0,1112,1422,125,9,7917,195
2015450051,3.4,2015-02-24,40.14437343488744,-4.700175517885539,1.0,11,45,144,"REAL DE SAN VICENTE, EL",2,1,12,0,0,164,304,10,2,0,0
2015030010,29.0,2015-02-25,38.84768175178161,-0.3083279776169715,1.0,9,3,84,"ORXA, L' /LORCHA",2,0,11,0,0,370,370,69,16,0,12260
2015100090,2.46,2015-02-25,40.136202294017615,-5.697439345014641,1.0,14,10,14,ALDEANUEVA DE LA VERA,4,1,2,0,0,146,176,6,1,0,0
2015130032,1.5,2015-02-25,38.69335719009676,-3.002472279828224,1.0,11,13,93,VILLANUEVA DE LOS INFANTES,4,0,99,0,0,70,100,5,0,0,0
2015450054,1.8,2015-02-25,39.62011791767939,-3.117475254603377,1.0,11,45,135,"PUEBLA DE ALMORADIEL, LA",4,1,99,0,0,116,134,13,1,0,0
2015050014,1.6,2015-02-26,40.1824897284616,-5.151184455773979,1.0,17,5,14,ARENAS DE SAN PEDRO,4,1,99,0,0,135,165,10,1,0,0
2015120005,5.0,2015-02-26,39.9408378114266,-0.0665011880798134,1.0,9,12,9,ALMASSORA/ALMAZORA,4,0,5,0,0,151,386,30,5,0,0
2015120006,3.0,2015-02-26,40.25050656315759,0.0764535268012668,1.0,9,12,132,VILANOVA D' ALCOLEA,4,0,5,0,0,215,560,55,7,0,0
2015160032,28.5,2015-02-26,39.41142385217473,-2.5429107575411045,1.0,11,16,171,"PROVENCIO, EL",2,1,83,0,0,154,1064,12,1,0,0
2015230006,2.15,2015-02-26,37.75426635298835,-3.342049393842749,1.0,4,23,15,BÉELMEZ DE LA MORALEDA,2,0,40,0,0,150,360,35,1,0,0
2015280014,3.14,2015-02-26,40.73023908132336,-3.737105295282493,1.0,16,28,45,COLMENAR VIEJO,2,1,22,0,0,121,122,13,2,0,0
2015430005,3.85,2015-02-26,40.65610234997079,0.7057648578910906,1.0,2,43,14,AMPOSTA,4,1,5,0,0,105,165,24,5,0,0
2015460013,1.8,2015-02-26,39.64878260622592,-0.3015698573691764,1.0,9,46,220,SAGUNT/SAGUNTO,2,0,50,0,0,129,419,56,7,0,0
2015490021,1.58,2015-02-26,41.97585917391056,-6.666624245169116,1.0,17,49,145,PEDRALBA DE LA PRADERIA,4,0,99,0,0,85,90,5,0,0,0
2015100094,2.71,2015-02-27,40.141327229436925,-5.950291414143019,1.0,14,10,184,"TORNO, EL",4,1,1,0,0,156,201,10,2,0,0
2015280016,2.02,2015-02-27,40.23839548235044,-3.207612914349424,1.0,16,28,155,VALDARACETE,2,0,12,0,0,76,172,17,3,0,0
2015490022,2.78,2015-02-27,41.94683002058048,-5.838393673315997,1.0,17,49,272,VILLAVEZA DE VALVERDE,2,1,84,0,0,90,95,3,0,0,0
2015100104,2.65,2015-02-28,39.62146710691721,-5.406775518008305,1.0,14,10,60,CASTAÑAR DE IBOR,2,1,10,0,0,330,2590,9,0,0,0
2015100105,5.0,2015-02-28,40.220054488009865,-6.8261455964460165,1.0,14,10,72,ELJAS,2,1,80,0,0,165,210,5,0,0,0
2015220031,2.08,2015-02-28,42.048714345547744,0.0108603229008935,1.0,10,22,176,PERALTILLA,2,1,10,0,0,82,275,16,3,0,728
2015490023,1.2,2015-03-01,41.98929229148781,-6.983481316861511,1.0,17,49,94,HERMISENDE,4,0,2,0,0,1,2,0,0,0,0
2015500011,5.13,2015-03-01,41.80312649511031,-1.7492349241878111,1.0,10,50,140,LITAGO,2,0,84,0,0,125,300,16,2,0,6
2015500014,2.44,2015-03-01,41.400868312534286,-1.7875687189347609,1.0,10,50,178,MOROS,2,1,86,0,0,120,189,4,2,0,5
2015100113,2.04,2015-03-02,40.25828325093255,-6.522707751909022,1.0,14,10,39,CADALSO,4,1,1,0,0,75,180,2,0,0,0
2015250043,2.2,2015-03-02,41.7025607893049,0.7279654003441015,1.0,2,25,254,VILLANOVA DE LA BARCA,4,1,99,0,0,96,178,20,3,0,0
2015370009,1.13,2015-03-02,40.815737525772064,-5.703867684314481,1.0,17,37,205,MORILLE,2,0,22,0,0,60,75,5,1,0,0
2015450060,1.7,2015-03-02,39.61458108735732,-3.130106027717257,1.0,11,45,135,"PUEBLA DE ALMORADIEL, LA",2,0,12,0,0,51,58,3,0,0,0
2015050019,2.1,2015-03-03,40.50096465155265,-4.631308014124308,1.0,17,5,22,BARRACO EL,2,0,20,0,0,105,135,5,0,0,0
2015100116,4.73,2015-03-03,40.1500532526278,-5.836197154225116,1.0,14,10,130,NAVACONCEJO,2,1,12,0,0,184,214,15,1,0,0
2015340005,1.77,2015-03-03,42.15126518640575,-4.573886076702096,1.0,17,34,127,PERALES,4,1,4,0,0,0,0,0,0,0,0
2015490025,1.0,2015-03-03,42.08943517582572,-6.663531639449156,1.0,17,49,85,GALENDE,4,0,2,0,0,29,55,9,1,0,0
2015100121,1.0,2015-03-04,40.02881210544796,-6.501115931860802,1.0,14,10,40,CALZADILLA,4,1,1,0,0,95,115,9,1,0,0
2015370010,2.84,2015-03-04,41.080926475429216,-6.572716977360078,1.0,17,37,191,MILANO EL,4,0,1,0,0,113,151,10,3,0,0
2015370011,8.18,2015-03-04,41.00965340760975,-6.676310210623309,1.0,17,37,49,BERMELLAR,2,1,21,0,0,170,260,19,2,0,0
2015370013,1.31,2015-03-04,40.30187812758557,-5.966752334941355,1.0,17,37,168,LAGUNILLA,2,0,12,0,0,235,255,5,1,0,0
2015490030,2.55,2015-03-04,42.09578277604522,-6.615064388542966,1.0,17,49,179,ROBLEDA-CERVANTES,4,0,2,0,0,95,155,11,0,0,0
2015490031,1.0,2015-03-04,41.72309559676573,-5.645940334271699,1.0,17,49,141,PAJARES DE LA LAMPREANA,4,0,1,0,0,171,176,3,1,0,0
2015100124,10.45,2015-03-05,40.47434763867961,-6.230503995087801,1.0,14,10,108,LADRILLAR,2,0,10,0,0,515,16235,35,9,0,0
2015100125,5.15,2015-03-05,40.0697462109101,-5.886969620797446,1.0,14,10,25,BARRADO,2,1,80,0,0,218,248,5,0,0,0
2015100126,2.34,2015-03-05,39.58291648026106,-5.488068043208277,1.0,14,10,33,CABAÑAS DEL CASTILLO,2,1,10,0,0,165,6945,11,1,0,0
2015100130,1.33,2015-03-05,40.19411396267459,-6.877780590054575,1.0,14,10,164,SAN MARTÍN DE TREVEJO,4,1,2,0,0,36,126,15,1,0,0
2015130034,3.2,2015-03-05,38.41428802564958,-4.265550144504635,1.0,11,13,42,FUENCALIENTE,2,0,30,0,0,253,348,14,3,0,0
2015370017,2.5,2015-03-05,41.01098993853619,-6.6396357919915765,1.0,17,37,275,SALDEANA,2,1,21,0,0,51,81,3,1,0,0
2015430084,3.3000000000000003,2015-03-05,41.2742257926332,1.2190294631549967,1.0,2,43,161,VALLS,2,0,12,0,0,205,475,31,6,0,0
2015450066,10.7,2015-03-05,40.15346241944609,-4.707587442928714,1.0,11,45,144,"REAL DE SAN VICENTE, EL",2,0,12,0,0,340,454,38,8,0,0
2015020018,3.28,2015-03-06,39.158412746488175,-1.6010084803126288,1.0,11,2,41,JORQUERA,2,1,10,0,0,317,1669,42,7,0,0
2015050021,2.8,2015-03-06,40.352104649845785,-5.581674111001625,1.0,17,5,236,SOLANA DE ÁVILA,2,0,21,0,0,150,330,14,1,0,0
2015060006,6.58,2015-03-06,38.52923672464191,-6.045497201962816,1.0,14,6,69,HORNACHOS,2,0,10,0,0,117,127,5,1,0,0
2015060007,1.5,2015-03-06,38.78731820785888,-7.070257793570037,1.0,14,6,15,BADAJOZ,2,0,80,0,0,76,130,5,1,0,0
2015090005,2.9,2015-03-06,41.95984531729991,-3.1824068768141727,1.0,17,9,225,MONCALVILLO,4,1,2,0,0,87,1241,6,2,0,0
2015100135,4.26,2015-03-06,40.22289647054723,-5.785861719754223,1.0,14,10,35,CABEZUELA DEL VALLE,4,1,1,0,0,160,225,5,1,0,0
2015130036,7.8,2015-03-06,39.31565521719344,-3.9757846244762662,1.0,11,13,36,"CORTIJOS, LOS",2,1,40,0,0,128,214,10,2,0,0
2015160040,2.16,2015-03-06,40.46252426311826,-2.128052834115937,1.0,11,16,91,FUERTESCUSA,2,0,30,0,0,285,1480,19,2,0,0
2015180008,13.83,2015-03-06,37.46329651604262,-2.7245045724865675,1.0,4,18,39,CANILES,4,1,99,0,0,130,495,71,6,1169,0
2015190027,1.0,2015-03-06,40.92419320568293,-2.950996354034884,1.0,11,19,156,JADRAQUE,5,0,0,0,0,0,41,2,1,0,0
2015210012,3.0,2015-03-06,37.58443686470143,-6.848333123114392,1.0,4,21,17,CALAÑAS,2,0,12,0,0,310,455,38,3,0,0
2015220014,1.6,2015-03-06,42.24363770780995,-0.6585636251752753,1.0,10,22,151,LOSCORRALES,2,0,10,0,0,30,131,12,2,0,672
2015220015,2.01,2015-03-06,41.8223721497658,-0.1576026668776367,1.0,10,22,213,SARIÑENA,2,0,10,0,0,138,203,12,2,0,844
2015240024,7.37,2015-03-06,42.574972282996974,-6.39305615547641,1.0,17,24,49,CASTROPODAME,4,0,20,0,0,160,206,13,1,0,0
2015370018,1.35,2015-03-06,40.49181037995968,-6.058021785842715,1.0,17,37,194,MOGARRAZ,2,1,81,0,0,160,240,25,2,0,0
2015370019,11.61,2015-03-06,40.32081800302754,-5.938644880585538,1.0,17,37,102,CERRO EL,4,1,2,0,0,320,350,5,1,0,0
2015390023,15.5,2015-03-06,43.24101961627877,-3.759263617675914,1.0,6,39,72,SAN ROQUE DE RIOMIERA,4,1,2,0,0,0,450,0,0,0,2388
2015390024,3.5,2015-03-06,43.2359666981777,-3.71905120491432,1.0,6,39,72,SAN ROQUE DE RIOMIERA,4,1,2,0,0,0,210,0,0,0,540
2015400001,1.5,2015-03-06,40.757790427336026,-4.4178899228454505,1.0,17,40,225,VILLACASTIN,2,0,82,0,0,85,85,8,1,0,0
2015490034,8.0,2015-03-06,42.07010964478053,-6.71338288843503,1.0,17,49,50,COBREROS,3,0,99,0,0,265,325,17,2,0,0
2015490037,1.04,2015-03-06,41.84522188012008,-6.313665261558718,1.0,17,49,104,MAHIDE,4,0,1,0,0,70,100,4,1,0,0
2015500016,2.62,2015-03-06,41.25256277739029,-1.519746375499716,1.0,10,50,169,MIEDES DE ARAGÓN,2,0,12,0,0,122,192,19,2,0,3
2015050023,9.97,2015-03-07,40.183741108355136,-5.152680413494318,1.0,17,5,14,ARENAS DE SAN PEDRO,4,1,19,0,0,180,330,24,7,0,0
2015050024,5.8,2015-03-07,40.29876815841588,-5.521735939355404,1.0,17,5,153,NAVA DEL BARCO,4,0,99,0,0,150,180,7,0,0,0
2015100139,1.75,2015-03-07,39.15847995091652,-5.586469684379916,1.0,14,10,112,MADRIGALEJO,4,1,1,0,0,142,1162,11,2,0,0
2015100140,8.58,2015-03-07,40.1304210841316,-5.618924224594336,1.0,14,10,110,LOSAR DE LA VERA,4,1,1,0,0,197,537,27,3,0,0
2015130039,4.12,2015-03-07,39.094291456065,-3.8285524033382665,1.0,11,13,31,CARRIÓN DE CALATRAVA,5,0,0,0,0,82,150,16,2,0,0
2015220017,1.7,2015-03-07,42.20683681013897,-0.6800678145806569,1.0,10,22,151,LOSCORRALES,3,0,10,0,0,90,210,15,3,0,714
2015220018,8.399999999999999,2015-03-07,42.48524381516842,0.4553398041416138,1.0,10,22,84,CASTEJÓN DE SOS,3,0,20,0,0,324,3154,37,3,0,4116
2015240027,6.4,2015-03-07,42.70874010571401,-6.536963767726158,1.0,17,24,169,TORENO,4,1,1,0,0,214,248,4,2,0,0
2015240028,10.0,2015-03-07,42.57048505323533,-7.007649206064105,1.0,17,24,103,OENCIA,4,1,1,0,0,0,335,0,0,0,0
2015260005,3.0,2015-03-07,42.26713857280444,-2.10935591964842,1.0,7,26,28,BERGASA,2,1,10,0,0,240,250,4,1,406,161
2015310029,3.5,2015-03-07,43.09656880866181,-1.637153051754662,1.0,13,31,54,BERTIZARANA,4,0,2,0,0,-952,278,4,1,0,0
2015320047,1.68,2015-03-07,42.076575374759415,-7.2022654186852,1.0,3,32,34,"GUDIÑA, A",4,1,1,0,0,75,110,4,1,0,0
2015320048,3.07,2015-03-07,42.31017544309191,-8.240303072969658,1.0,3,32,46,MELÓN,2,0,80,0,0,117,150,25,1,0,44
2015320049,6.0,2015-03-07,42.019729024211976,-7.145133599119665,1.0,3,32,34,"GUDIÑA, A",4,1,1,0,0,126,145,7,2,0,0
2015320050,3.4,2015-03-07,41.89614553761907,-7.189700277879307,1.0,3,32,91,VILARDEVÓS,4,1,1,0,0,185,221,7,2,0,0
2015320051,3.0,2015-03-07,41.84858096052766,-7.306451031339904,1.0,3,32,91,VILARDEVÓS,4,1,1,0,0,180,195,6,1,0,0
2015320054,1.3,2015-03-07,42.20615069524149,-7.215917192087688,1.0,3,32,92,VILARIÑO DE CONSO,4,1,1,0,0,105,111,4,1,0,0
2015330046,4.4,2015-03-07,43.35732054937289,-6.350626743800822,1.0,5,33,73,TINEO,4,0,2,0,0,190,250,10,4,0,0
2015330049,7.6,2015-03-07,43.400618941085625,-4.827332610653257,1.0,5,33,36,LLANES,4,1,2,0,0,77,82,5,2,0,0
2015330050,2.1,2015-03-07,43.31470560837179,-5.32798402196045,1.0,5,33,49,PILOÑA,4,1,2,0,0,61,76,4,1,0,0
2015330051,3.1,2015-03-07,43.28456876862008,-6.318218639360793,1.0,5,33,5,BELMONTE DE MIRANDA,4,0,4,0,0,194,204,9,2,0,0
2015330052,2.0,2015-03-07,43.48888821815925,-6.344161787452036,1.0,5,33,34,VALDÉS,4,1,2,0,0,177,215,3,1,0,0
2015330054,2.0,2015-03-07,43.402289727915296,-5.257440367448651,1.0,5,33,49,PILOÑA,4,1,2,0,0,105,120,3,1,0,0
2015330055,5.0,2015-03-07,43.31833385506378,-6.10277874276325,1.0,5,33,26,GRADO,4,0,2,0,0,192,240,2,1,0,0
2015330056,5.0,2015-03-07,43.1572201729485,-6.233055146140394,1.0,5,33,68,SOMIEDO,4,1,2,0,0,171,176,3,1,0,0
2015360010,1.05,2015-03-07,42.55488080941652,-8.030946998682984,1.0,3,36,16,DOZÓN,2,0,11,0,0,24,119,3,1,740,0
2015360012,1.91,2015-03-07,42.51732593399354,-8.521179565407012,1.0,3,36,12,COTOBADE,4,1,10,0,0,90,119,5,1,428,0
2015370020,1.84,2015-03-07,40.51743861298174,-5.881044363396358,1.0,17,37,284,S ESTEBAN DE LA SIERRA,4,1,4,0,0,90,150,7,2,0,0
2015370021,1.59,2015-03-07,40.57870724210788,-5.899313912932926,1.0,17,37,172,LINARES DE RIOFRIO,2,1,12,0,0,143,176,9,1,0,0
2015390025,6.0,2015-03-07,43.23084090808199,-3.7179564964813103,1.0,6,39,72,SAN ROQUE DE RIOMIERA,4,1,2,0,0,0,210,0,0,0,924
2015390026,200.0,2015-03-07,43.17372286740767,-3.722417495127723,1.0,6,39,97,VEGA DE PAS,4,1,2,0,0,0,5055,0,0,0,47553
2015390030,1.2,2015-03-07,43.16656731010599,-3.756741567588872,1.0,6,39,97,VEGA DE PAS,4,1,2,0,0,100,115,6,1,199,1238
2015390067,206.6,2015-03-07,43.22289424567861,-3.66197349877936,1.0,6,39,83,SOBA,4,1,2,0,0,0,960,0,0,0,32268
2015390068,12.8,2015-03-07,43.180156876218405,-3.7713673152757705,1.0,6,39,82,SELAYA,4,1,2,0,0,0,225,0,0,0,1971
2015390069,11.2,2015-03-07,43.22242899258903,-3.7239158339320304,1.0,6,39,72,SAN ROQUE DE RIOMIERA,4,1,2,0,0,0,360,0,0,0,1726
2015390070,5.0,2015-03-07,43.17711679280799,-3.768166915197404,1.0,6,39,82,SELAYA,4,1,2,0,0,0,260,0,0,0,770
2015390071,12.6,2015-03-07,43.178916799843776,-3.781601243460457,1.0,6,39,82,SELAYA,4,1,2,0,0,0,260,0,0,0,1940
2015390072,11.4,2015-03-07,43.1815755267894,-3.7336583291584873,1.0,6,39,82,SELAYA,4,1,2,0,0,0,420,0,0,0,1755
2015430059,1.0,2015-03-07,41.25035318370128,0.8787739757863693,1.0,2,43,96,"MORERA DE MONTSANT, LA",2,0,30,0,0,65,190,27,6,0,0
2015490040,12.79,2015-03-07,41.97733848771047,-6.678632207887316,1.0,17,49,145,PEDRALBA DE LA PRADERIA,4,0,1,0,0,190,216,15,1,0,0
2015490041,8.36,2015-03-07,42.0711099242516,-6.678175491508852,1.0,17,49,50,COBREROS,2,0,84,0,0,220,330,22,4,0,0
2015500018,1.18,2015-03-07,41.31878793729761,-1.4997895641807468,1.0,10,50,46,BELMONTE DE GRACIÁN,2,0,12,0,0,65,130,6,0,0,1
2015500019,2.53,2015-03-07,41.19399574877069,-1.86655799578583,1.0,10,50,129,JARABA,2,1,86,0,0,106,184,13,1,0,1503
2015500020,1.14,2015-03-07,41.19204483074532,-1.8761314562349247,1.0,10,50,129,JARABA,2,1,86,0,0,106,184,12,1,0,1502
2015050027,4.5,2015-03-08,40.331201192283565,-5.390938170893737,1.0,17,5,904,SANTIAGO DEL TORMES,2,0,82,0,0,130,170,9,1,0,0
2015050029,6.2,2015-03-08,40.402525075692026,-5.520280199220785,1.0,17,5,112,LOSAR DEL BARCO EL,4,1,22,0,0,340,427,2,0,0,0
2015060008,4.5,2015-03-08,38.9786122452528,-5.978561649891764,1.0,14,6,80,MEDELLÍN,2,1,12,0,0,129,139,7,1,0,0
2015060009,4.9,2015-03-08,38.96912465887387,-5.948840325765901,1.0,14,6,80,MEDELLÍN,2,1,80,0,0,50,200,9,2,0,0
2015090008,1.3,2015-03-08,41.78401716526596,-3.7100950446676513,1.0,17,9,151,GUMIEL DE IZAN,4,1,4,0,0,73,2780,8,1,0,0
2015180010,3.54,2015-03-08,37.628994023703406,-2.806715577416157,1.0,4,18,23,BAZA,4,1,99,0,0,524,1214,27,3,1893,33
2015190034,1.8,2015-03-08,40.75401137229832,-2.867639559377284,1.0,11,19,53,BRIHUEGA,4,1,99,0,0,185,261,5,2,0,0
2015240030,20.2,2015-03-08,42.38554048367458,-6.374297903756474,1.0,17,24,90,LUCILLO,4,1,1,0,0,228,446,3,1,0,0
2015240031,8.0,2015-03-08,42.73384286971083,-6.718122592579085,1.0,17,24,196,VEGA DE ESPINAREDA,2,1,82,0,0,360,360,4,1,0,0
2015240032,13.62,2015-03-08,42.63863701645268,-6.173871106641033,1.0,17,24,210,VILLAGATON,4,1,1,0,0,230,230,2,0,0,0
2015240033,2.7,2015-03-08,42.49756501425239,-5.328500615299088,1.0,17,24,160,SANTAS MARTAS,2,1,10,0,0,215,215,0,0,0,0
2015240039,5.25,2015-03-08,42.31124563232667,-6.193277779380628,1.0,17,24,91,LUYEGO,4,1,1,0,0,295,295,2,0,0,0
2015250081,20.69,2015-03-08,42.82618332575035,0.7080091389203149,1.0,2,25,121,LES,5,0,0,0,0,360,1260,7,1,0,0
2015260006,1.41,2015-03-08,42.38057789079801,-2.7955475666602214,1.0,7,26,23,BADARÁN,4,1,2,0,0,53,94,12,1,5112,76
2015290012,14.41,2015-03-08,36.624251124034615,-5.103026250442391,1.0,4,29,60,IGUALEJA,2,0,30,0,0,1661,2981,102,12,0,0
2015310030,2.5,2015-03-08,42.90760267222253,-2.1082513370427702,1.0,13,31,44,BAKAIKU,5,0,0,0,0,-762,61,4,2,0,0
2015310031,1.5,2015-03-08,42.90519259181794,-2.1452803462683434,1.0,13,31,240,URDIAIN,2,1,90,0,0,-833,41,4,2,0,0
2015310032,1.4,2015-03-08,42.50241735944238,-1.9775003752443767,1.0,13,31,152,LERÍN,4,1,99,0,0,-1071,134,4,1,0,0
2015310033,2.0,2015-03-08,42.54392361402319,-2.18897891624971,1.0,13,31,29,"ARCOS, LOS",4,1,99,0,0,-1157,104,4,1,0,0
2015320055,3.27,2015-03-08,42.309764614658754,-6.765915161193123,1.0,3,32,17,CARBALLEDA DE VALDEORRAS,4,1,5,0,0,675,1894,6,5,0,0
2015320057,30.75,2015-03-08,42.30049441765524,-6.764811594633503,1.0,3,32,17,CARBALLEDA DE VALDEORRAS,4,1,5,0,0,645,1860,5,1,0,0
2015320058,2.15,2015-03-08,42.0723990661313,-7.195541607054801,1.0,3,32,34,"GUDIÑA, A",4,1,1,0,0,66,88,4,1,0,0
2015320059,18.41,2015-03-08,42.28218340244573,-6.786949309788883,1.0,3,32,17,CARBALLEDA DE VALDEORRAS,4,1,5,0,0,1357,1879,3,1,0,0
2015320060,83.25,2015-03-08,42.29295131477125,-6.783078854393415,1.0,3,32,17,CARBALLEDA DE VALDEORRAS,4,1,5,0,0,1302,1824,31,2,0,0
2015320061,2.0,2015-03-08,42.02171927365716,-7.064961461937189,1.0,3,32,48,"MEZQUITA, A",4,1,1,0,0,85,136,5,1,0,0
2015320062,19.7,2015-03-08,42.27100683319127,-6.786916127965728,1.0,3,32,17,CARBALLEDA DE VALDEORRAS,4,1,5,0,0,630,1815,5,0,0,0
2015320063,47.03,2015-03-08,42.270843685441925,-6.802308987597394,1.0,3,32,17,CARBALLEDA DE VALDEORRAS,4,1,5,0,0,655,1793,13,0,0,0
2015320064,40.21,2015-03-08,42.28335204394414,-6.774283347008338,1.0,3,32,17,CARBALLEDA DE VALDEORRAS,4,1,99,0,0,1272,1792,16,0,0,0
2015320065,143.97,2015-03-08,42.31950222139441,-6.794414871831419,1.0,3,32,17,CARBALLEDA DE VALDEORRAS,4,1,5,0,0,882,1786,7,0,0,0
2015330057,1.5,2015-03-08,43.25055274981359,-6.2433288002941945,1.0,5,33,5,BELMONTE DE MIRANDA,2,1,21,0,0,137,151,4,2,0,0
2015330058,1.91,2015-03-08,43.32514482922232,-5.0072461408440905,1.0,5,33,12,CANGAS DE ONÍS,4,0,2,0,0,164,177,3,2,0,0
2015330060,1.5,2015-03-08,43.30184458661096,-5.921747362091876,1.0,5,33,57,RIBERA DE ARRIBA,4,1,2,0,0,113,145,0,0,0,0
2015330063,4.0,2015-03-08,43.18928820979673,-6.235839039998252,1.0,5,33,68,SOMIEDO,4,1,2,0,0,177,204,0,0,0,0
2015330065,11.87,2015-03-08,43.278272065752205,-6.295548834176157,1.0,5,33,5,BELMONTE DE MIRANDA,4,0,2,0,0,283,297,6,1,0,0
2015370022,1.35,2015-03-08,40.52994568305546,-5.850357226513562,1.0,17,37,300,SANTOS LOS,4,1,2,0,0,85,130,3,1,0,0
2015390027,11.3,2015-03-08,43.17651676347215,-4.286273632521524,1.0,6,39,14,CABUÉRNIGA,4,0,2,0,0,256,346,10,1,117,1844
2015390028,15.6,2015-03-08,43.205748947361535,-3.741309214739609,1.0,6,39,82,SELAYA,4,1,2,0,0,180,270,5,0,345,2632
2015390031,12.3,2015-03-08,43.1996472688856,-3.7518083734235,1.0,6,39,82,SELAYA,4,1,2,0,0,60,135,5,0,154,1894
2015390032,12.0,2015-03-08,43.291436049988185,-4.42865274377904,1.0,6,39,63,RIONANSA,4,1,1,0,0,375,405,6,0,650,1848
2015390033,8.9,2015-03-08,43.20544279598144,-3.732922596685365,1.0,6,39,82,SELAYA,4,0,2,0,0,0,795,0,0,0,2213
2015390034,4.7,2015-03-08,43.334283009595495,-3.692109436710684,1.0,6,39,64,RIOTUERTO,4,1,2,0,0,180,238,5,0,310,772
2015390035,36.0,2015-03-08,43.20750537056747,-3.7200832125092895,1.0,6,39,72,SAN ROQUE DE RIOMIERA,4,1,2,0,0,0,570,0,0,0,5546
2015390036,14.5,2015-03-08,43.14314085992382,-3.7169662445724017,1.0,6,39,97,VEGA DE PAS,4,1,2,0,0,0,3420,0,0,0,3651
2015450080,8.1,2015-03-08,39.60826732742823,-3.1357671915437795,1.0,11,45,135,"PUEBLA DE ALMORADIEL, LA",4,0,5,0,0,108,175,15,2,0,0
2015490046,2.88,2015-03-08,41.86913927458466,-6.455305965702903,1.0,17,49,69,FIGUERUELA DE ARRIBA,4,0,4,0,0,75,115,3,1,0,0
2015490047,1.2,2015-03-08,41.84347067998328,-6.301628130170627,1.0,17,49,104,MAHIDE,4,0,2,0,0,35,65,4,1,0,0
2015490048,15.59,2015-03-08,42.09128380086509,-6.02107177382022,1.0,17,49,206,SANTIBAÑEZ DE VIDRIALES,2,1,22,0,0,197,217,9,0,0,0
2015490049,6.1,2015-03-08,41.80689666580764,-6.155806092427713,1.0,17,49,176,RIOFRIO DE ALISTE,4,1,2,0,0,135,190,3,1,0,0
2015490050,1.1,2015-03-08,41.70472684235896,-6.208530530927357,1.0,17,49,87,GALLEGOS DEL RIO,4,0,2,0,0,75,90,4,1,0,0
2015490051,2.0,2015-03-08,41.67527074956999,-6.104990219542812,1.0,17,49,98,LOSACINO,4,0,99,0,0,158,167,2,0,0,0
2015500023,7.48,2015-03-08,41.5142311668652,-1.5231462575213237,1.0,10,50,32,ARÁNDIGA,2,0,12,0,0,161,269,12,1,0,8
2015500024,1.72,2015-03-08,41.543681433762536,-1.6344054868510556,1.0,10,50,126,ILLUECA,2,0,12,0,0,81,272,21,2,0,2
2015090009,4.51,2015-03-09,42.68370147293818,-3.4712587656139884,1.0,17,9,329,SALAS DE BUREBA,2,0,30,0,0,171,324,9,2,0,0
2015100146,2.1,2015-03-09,40.399006124923794,-6.304251731438424,1.0,14,10,135,NUÑOMORAL,2,1,20,0,0,408,1715,54,2,0,0
2015100148,1.65,2015-03-09,39.26127599511429,-5.993001504206278,1.0,14,10,158,ROBLEDILLO DE TRUJILLO,4,1,99,0,0,95,200,9,1,0,0
2015240034,1.95,2015-03-09,42.60651519906469,-6.869937397774174,1.0,17,24,59,CORULLON,2,1,12,0,0,55,121,2,1,0,0
2015240036,5.8,2015-03-09,42.39331426483845,-4.9743234797235365,1.0,17,24,139,SAHAGUN,2,1,84,0,0,108,108,3,0,0,0
2015240038,27.82,2015-03-09,42.300485560413904,-6.548214287827946,1.0,17,24,67,ENCINEDO,4,1,2,0,0,295,295,0,0,0,0
2015250029,1.6,2015-03-09,42.36265887978615,1.7680929343178649,1.0,2,25,51,BELLVER DE CERDANYA,5,0,0,0,0,20,110,10,2,0,0
2015320074,1.0,2015-03-09,41.89813546913352,-7.870671309633156,1.0,3,32,16,CALVOS DE RANDÍN,4,1,99,0,0,52,187,6,0,0,2343
2015320078,3.5,2015-03-09,41.92457851008977,-7.548512393036493,1.0,3,32,50,MONTERREI,4,1,99,0,0,113,142,8,1,0,4654
2015320079,4.42,2015-03-09,42.02198445099404,-7.046594631505836,1.0,3,32,48,"MEZQUITA, A",4,1,1,0,0,65,86,6,1,0,0
2015330069,12.79,2015-03-09,43.28962823594242,-5.876949479171262,1.0,5,33,38,MORCÍN,2,0,21,0,0,111,231,3,2,0,0
2015330071,19.38,2015-03-09,43.09220066147851,-5.736271757495215,1.0,5,33,33,LENA,4,0,2,0,0,135,189,3,1,0,0
2015330072,2.89,2015-03-09,43.39617583423576,-5.972446357461968,1.0,5,33,54,"REGUERAS, LAS",2,0,82,0,0,101,110,2,1,0,0
2015330073,3.0,2015-03-09,43.30805926507463,-4.819168306582391,1.0,5,33,8,CABRALES,4,0,2,0,0,100,308,11,1,0,0
2015330074,3.77,2015-03-09,43.29274619193826,-5.401895059287989,1.0,5,33,49,PILOÑA,4,0,2,0,0,79,93,2,1,0,0
2015330076,2.0,2015-03-09,43.30666800488265,-5.119997041889992,1.0,5,33,12,CANGAS DE ONÍS,4,1,2,0,0,76,92,0,0,0,0
2015360021,1.03,2015-03-09,42.725531602154526,-7.977617844629582,1.0,3,36,20,AGOLADA,4,0,99,0,0,47,99,7,1,939,0
2015370024,1.88,2015-03-09,40.30448316400027,-5.907476604466639,1.0,17,37,102,CERRO EL,2,0,12,0,0,100,190,3,1,0,0
2015370025,22.89,2015-03-09,40.47681921302672,-5.924634836009349,1.0,17,37,298,SANTIBAÑEZ DE LA SIERRA,2,1,12,0,0,285,425,31,5,0,0
2015370027,7.98,2015-03-09,40.503816374991295,-5.767758566821343,1.0,17,37,333,VALDELACASA,2,1,83,0,0,411,441,19,1,0,0
2015370029,4.06,2015-03-09,40.45167717963437,-5.877052558145911,1.0,17,37,161,HORCAJO DE MONTEMAYOR,2,1,21,0,0,252,312,10,1,0,0
2015370030,53.9,2015-03-09,40.32889236631766,-6.686828786302676,1.0,17,37,245,PEÑAPARDA,4,1,2,0,0,405,1530,52,7,0,0
2015370031,3.97,2015-03-09,40.48172479175599,-5.87418383486692,1.0,17,37,112,CRISTOBAL,2,1,83,0,0,26,66,3,1,0,0
2015390037,185.0,2015-03-09,43.13791406767917,-3.731820404582527,1.0,6,39,97,VEGA DE PAS,4,1,2,0,0,0,3360,0,0,0,28745
2015390038,3.85,2015-03-09,43.27034296565832,-3.80346014308688,1.0,6,39,81,SARO,4,1,2,0,0,0,125,0,0,0,568
2015390039,4.0,2015-03-09,43.26983729833443,-3.772289458902477,1.0,6,39,81,SARO,4,1,2,0,0,45,100,6,0,145,631
2015390040,42.0,2015-03-09,43.22408008018479,-3.7191208082308553,1.0,6,39,72,SAN ROQUE DE RIOMIERA,4,1,2,0,0,0,630,0,0,0,6470
2015390041,3.44,2015-03-09,43.18520212222035,-3.982484373141258,1.0,6,39,3,ANIEVAS,4,0,2,0,0,0,180,0,0,0,530
2015450082,1.38,2015-03-09,39.60477642180624,-3.1390451799853736,1.0,11,45,135,"PUEBLA DE ALMORADIEL, LA",4,1,99,0,0,170,264,9,2,0,0
2015450083,6.8,2015-03-09,40.14601044400832,-4.71196736479815,1.0,11,45,144,"REAL DE SAN VICENTE, EL",6,1,0,0,0,153,319,24,3,0,0
2015450084,1.45,2015-03-09,39.61302265622906,-3.1297769207430632,1.0,11,45,135,"PUEBLA DE ALMORADIEL, LA",4,1,1,0,0,108,141,10,1,0,0
2015490056,1.91,2015-03-09,41.73016836885823,-6.056348848528623,1.0,17,49,99,LOSACIO,4,0,1,0,0,225,270,4,1,0,0
2015490057,1.5,2015-03-09,41.84954594470884,-6.18968850190907,1.0,17,49,176,RIOFRIO DE ALISTE,4,0,99,0,0,80,95,0,0,0,0
2015050031,2.0,2015-03-10,40.30050565050147,-5.617037605322653,1.0,17,5,192,PUERTO CASTILLA,4,0,2,0,0,60,90,6,0,0,0
2015100152,1.6,2015-03-10,40.141722101287705,-5.696366694206881,1.0,14,10,14,ALDEANUEVA DE LA VERA,4,1,1,0,0,198,198,6,3,0,0
2015100158,71.58,2015-03-10,40.16400522485127,-5.88071219604726,1.0,14,10,130,NAVACONCEJO,4,1,1,0,0,888,1758,97,2,0,0
2015100159,1.79,2015-03-10,40.21170825147793,-5.755431006939892,1.0,14,10,107,JERTE,2,1,10,0,0,107,197,9,1,0,0
2015100162,1.19,2015-03-10,40.04087176947018,-5.748360918941967,1.0,14,10,104,JARAÍZ DE LA VERA,4,1,2,0,0,257,279,16,2,0,0
2015100219,2.07,2015-03-10,40.163356087136286,-5.874579599139233,1.0,14,10,130,NAVACONCEJO,4,1,1,0,0,438,1758,13,1,0,0
2015240041,7.8,2015-03-10,42.67782166504756,-5.7977702852608015,1.0,17,24,133,RIOSECO DE TAPIA,4,0,1,0,0,145,145,2,1,0,0
2015240044,1.45,2015-03-10,42.52485991283903,-6.578527229706021,1.0,17,24,115,PONFERRADA,2,1,22,0,0,40,40,2,1,0,0
2015240045,2.29,2015-03-10,42.1507307927877,-5.921216750840833,1.0,17,24,146,S ESTEBAN DE NOGALES,4,1,1,0,0,91,118,2,1,0,0
2015240046,74.64,2015-03-10,42.29228106676028,-6.720772134694851,1.0,17,24,67,ENCINEDO,4,1,5,0,0,1332,1332,19,2,0,0
2015240047,12.7,2015-03-10,42.28760185991016,-6.67578381886778,1.0,17,24,67,ENCINEDO,4,0,5,0,0,1075,1331,19,1,0,0
2015270010,1.12,2015-03-10,42.49712964689289,-7.305812607742331,1.0,3,27,50,QUIROGA,4,1,10,0,0,67,114,11,1,0,0
2015290013,1.12,2015-03-10,36.54641961789272,-5.216050772976194,1.0,4,29,57,GENALGUACIL,5,0,0,0,0,195,1255,53,3,0,0
2015310036,1.0,2015-03-10,43.19509740041996,-1.454362772502416,1.0,13,31,50,BAZTAN,4,0,2,0,0,-145,90,4,1,0,0
2015310040,2.0,2015-03-10,42.99704147655138,-1.6208796195759612,1.0,13,31,140,LANTZ,5,0,0,0,0,-881,237,8,5,0,0
2015310041,3.0,2015-03-10,43.21769417652701,-1.4613638584857076,1.0,13,31,50,BAZTAN,4,0,2,0,0,-1184,241,4,2,0,0
2015320086,3.75,2015-03-10,42.04412983440987,-7.064631723583935,1.0,3,32,48,"MEZQUITA, A",4,1,1,0,0,55,64,6,1,0,0
2015320089,4.7,2015-03-10,41.83398003585186,-7.6013591512924625,1.0,3,32,53,OÍMBRA,4,1,1,0,0,80,125,7,1,0,0
2015320091,13.57,2015-03-10,42.02664362733272,-8.02312645124316,1.0,3,32,41,LOBEIRA,4,1,1,0,0,195,225,12,3,0,0
2015320092,3.19,2015-03-10,41.97916807833098,-7.18246157899616,1.0,3,32,34,"GUDIÑA, A",4,1,1,0,0,184,195,10,3,0,0
2015330078,11.6,2015-03-10,43.10290928966921,-6.562362060944033,1.0,5,33,11,CANGAS DEL NARCEA,4,0,2,0,0,386,396,4,1,0,0
2015330080,1.73,2015-03-10,43.24447148878753,-6.211629012530189,1.0,5,33,5,BELMONTE DE MIRANDA,2,0,80,0,0,41,174,4,1,0,0
2015330082,3.72,2015-03-10,43.21575451342483,-5.471874409749915,1.0,5,33,67,SOBRESCOBIO,4,0,2,0,0,144,156,5,1,0,0
2015330083,1.5,2015-03-10,43.41666643354346,-4.812498626061768,1.0,5,33,36,LLANES,2,0,30,0,0,65,77,3,1,0,0
2015330084,1.77,2015-03-10,43.34871160925332,-4.983876927071289,1.0,5,33,43,ONÍS,4,0,2,0,0,114,174,4,1,0,0
2015330085,1.87,2015-03-10,43.22653293268787,-5.434508320249472,1.0,5,33,67,SOBRESCOBIO,4,0,2,0,0,101,135,9,1,0,0
2015330087,8.9,2015-03-10,43.20344556169638,-6.563776412856525,1.0,5,33,1,ALLANDE,4,0,2,0,0,181,270,7,1,0,0
2015330088,2.5,2015-03-10,43.364497826794256,-6.63862919910007,1.0,5,33,73,TINEO,4,0,2,0,0,0,133,0,0,0,0
2015370034,1.51,2015-03-10,40.68364972502154,-6.044005270054476,1.0,17,37,316,TAMAMES,2,1,84,0,0,55,125,14,1,0,0
2015390043,22.0,2015-03-10,43.12086971992212,-3.721610930948841,1.0,6,39,97,VEGA DE PAS,4,1,2,0,0,0,1425,0,0,0,3389
2015390044,6.0,2015-03-10,43.307205926014746,-3.702517110323546,1.0,6,39,45,MIERA,4,1,2,0,0,0,420,0,0,0,924
2015390045,11.0,2015-03-10,43.21795246136887,-3.719824461642972,1.0,6,39,72,SAN ROQUE DE RIOMIERA,4,1,2,0,0,0,225,0,0,0,1694
2015450086,1.36,2015-03-10,40.15417056577435,-4.709049289175795,1.0,11,45,144,"REAL DE SAN VICENTE, EL",2,0,30,0,0,168,300,8,1,0,0
2015450089,3.2,2015-03-10,39.92998374785252,-4.934143479585835,1.0,11,45,28,CALERA Y CHOZAS,4,1,19,0,0,59,128,9,2,0,0
2015490058,1.11,2015-03-10,41.96306179429157,-6.8891029953101,1.0,17,49,94,HERMISENDE,4,0,1,0,0,120,150,8,1,0,0
2015490059,1.29,2015-03-10,42.05227756727584,-6.868367962510028,1.0,17,49,100,LUBIAN,4,1,99,0,0,665,890,0,0,0,0
2015500026,8.78,2015-03-10,41.22319001869737,-1.821732553657008,1.0,10,50,125,IBDES,2,1,84,0,0,172,1202,22,3,0,1807
2015050032,5.0,2015-03-11,40.26040736007645,-5.514936786619455,1.0,17,5,159,NAVALONGUILLA,2,1,84,0,0,155,380,2,1,0,0
2015090014,2.41,2015-03-11,42.68505206261637,-4.203140772096027,1.0,17,9,306,REBOLLEDO DE LA TORRE,4,0,99,0,0,97,153,3,1,0,0
2015100164,2.0,2015-03-11,39.223169558673895,-6.134038941950899,1.0,14,10,126,MONTÁNCHEZ,4,1,99,0,0,207,302,9,0,0,0
2015130045,1.5,2015-03-11,38.855020058838406,-3.8690671068061446,1.0,11,13,66,POZUELO DE CALATRAVA,2,0,40,0,0,114,132,10,1,0,0
2015240048,34.84,2015-03-11,42.23464339730256,-6.683731310631861,1.0,17,24,67,ENCINEDO,4,1,2,0,0,0,0,0,0,0,0
2015240049,12.58,2015-03-11,42.2534616840831,-6.702196406332905,1.0,17,24,67,ENCINEDO,4,1,5,0,0,0,0,0,0,0,0
2015240050,1.35,2015-03-11,42.60569794134982,-6.8682778303249545,1.0,17,24,59,CORULLON,4,0,1,0,0,0,0,0,0,0,0
2015320093,1.01,2015-03-11,42.16156776947171,-7.053986447495448,1.0,3,32,86,VIANA DO BOLO,4,1,1,0,0,73,85,6,1,0,0
2015320095,2.18,2015-03-11,42.14371501836988,-7.050624739545341,1.0,3,32,86,VIANA DO BOLO,4,1,1,0,0,90,105,5,1,0,0
2015330089,1.5,2015-03-11,43.25638489215172,-5.223052859956276,1.0,5,33,50,PONGA,4,1,2,0,0,114,134,2,1,0,0
2015330090,5.0,2015-03-11,43.22527329991627,-5.6483348846334565,1.0,5,33,37,MIERES,4,1,2,0,0,218,238,4,2,0,0
2015330091,13.5,2015-03-11,43.22052482526558,-6.628793555969615,1.0,5,33,1,ALLANDE,4,0,2,0,0,229,261,7,2,0,0
2015330092,1.85,2015-03-11,43.230553882723726,-5.434693078051652,1.0,5,33,67,SOBRESCOBIO,4,0,2,0,0,167,196,7,0,0,0
2015370036,21.97,2015-03-11,40.42705250657924,-5.717412887505181,1.0,17,37,133,FRESNEDOSO,2,1,12,0,0,203,263,6,5,0,0
2015390049,12.5,2015-03-11,43.29125438046598,-3.6899325033699375,1.0,6,39,45,MIERA,4,1,2,0,0,0,510,0,0,0,3107
2015390050,12.5,2015-03-11,43.29684768607701,-3.688195831462042,1.0,6,39,45,MIERA,4,1,2,0,0,0,510,0,0,0,1926
2015390051,12.0,2015-03-11,43.27610967566229,-3.721865262041186,1.0,6,39,45,MIERA,4,1,2,0,0,0,285,0,0,0,1848
2015390052,1.58,2015-03-11,43.13114082145268,-3.875625451564458,1.0,6,39,71,SAN PEDRO DEL ROMERAL,4,1,2,0,0,0,239,0,0,0,251
2015390054,1.05,2015-03-11,43.06153246392121,-4.625465970305632,1.0,6,39,96,VEGA DE LIÉBANA,4,0,4,0,0,0,753,0,0,0,162
2015440005,13.33,2015-03-11,41.050296773355285,-1.374031429082476,1.0,10,44,207,SAN MARTÍN DEL RÍO,4,1,1,0,0,226,251,9,1,629,35639
2015460021,6.4,2015-03-11,39.62581325822622,-0.2589876978159603,1.0,9,46,220,SAGUNT/SAGUNTO,2,0,10,0,0,214,514,28,3,0,0
2015490060,17.3,2015-03-11,41.93820104459471,-6.725573159279954,1.0,17,49,145,PEDRALBA DE LA PRADERIA,4,0,99,0,0,230,500,17,1,0,0
2015490063,1.42,2015-03-11,42.15037224717032,-6.297592155929375,1.0,17,49,97,JUSTEL,4,0,99,0,0,1,2,0,0,0,0
2015050034,7.8,2015-03-12,40.55084566882682,-5.177044704539501,1.0,17,5,52,CASAS DEL PUERTO,2,0,21,0,0,215,285,15,1,0,0
2015100171,1.26,2015-03-12,40.07957975294485,-5.49033691063346,1.0,14,10,204,VALVERDE DE LA VERA,4,1,2,0,0,74,144,8,1,0,0
2015100172,1.12,2015-03-12,40.22582036386927,-6.8410867114080505,1.0,14,10,72,ELJAS,2,1,10,0,0,63,98,8,0,0,0
2015100581,4.89,2015-03-12,39.76235779028347,-5.569631338208583,1.0,14,10,120,MESAS DE IBOR,4,1,99,0,0,244,1844,41,1,0,0
2015150014,2.5,2015-03-12,42.925201102258285,-8.646991891375036,1.0,3,15,2,AMES,4,1,99,0,0,156,183,28,3,0,11028
2015240052,2.5,2015-03-12,42.32462657137148,-6.544148164473037,1.0,17,24,43,CASTRILLO DE CABRERA,4,1,2,0,0,1690,1740,0,0,0,0
2015240053,95.94,2015-03-12,42.24781141217609,-6.593480955981475,1.0,17,24,67,ENCINEDO,4,1,2,0,0,953,998,21,3,0,0
2015240054,13.0,2015-03-12,42.30576604667869,-6.520076607333452,1.0,17,24,43,CASTRILLO DE CABRERA,4,1,2,0,0,380,389,0,0,0,0
2015300021,3.59,2015-03-12,38.223156233487686,-1.4181095789459026,1.0,8,30,19,CIEZA,4,1,99,0,0,374,2454,72,6,0,0
2015310045,1.0,2015-03-12,42.83412098214784,-1.275138942279872,0.0,13,31,28,ARTZI/ARCE,5,0,0,0,0,-1117,131,2,1,0,0
2015320097,1.46,2015-03-12,42.03809356525414,-7.38975426291884,1.0,3,32,21,CASTRELO DO VAL,5,0,0,0,0,51,90,9,1,0,432
2015320098,2.18,2015-03-12,42.09574469967278,-7.022989256546959,1.0,3,32,86,VIANA DO BOLO,4,1,1,0,0,127,155,9,1,0,563
2015330096,1.5,2015-03-12,43.35532666284457,-6.642748563309231,1.0,5,33,73,TINEO,4,0,2,0,0,78,108,9,1,0,0
2015330097,6.4,2015-03-12,43.1784974964581,-6.447909489376919,1.0,5,33,11,CANGAS DEL NARCEA,4,0,2,0,0,212,252,3,1,0,0
2015330098,4.9,2015-03-12,43.17593539990102,-6.39499018136937,1.0,5,33,11,CANGAS DEL NARCEA,4,0,2,0,0,270,337,5,0,0,0
2015330099,5.3,2015-03-12,43.26696657880818,-5.930414679907883,1.0,5,33,38,MORCÍN,4,0,2,0,0,172,183,6,2,0,0
2015330101,4.76,2015-03-12,43.03298233197471,-5.814807036404776,1.0,5,33,33,LENA,4,0,2,0,0,122,123,0,0,0,0
2015330102,11.0,2015-03-12,43.38333409854507,-4.816393725901524,1.0,5,33,36,LLANES,4,0,2,0,0,82,228,7,1,0,0
2015330104,1.3,2015-03-12,43.3209261403133,-5.8869362247097365,1.0,5,33,57,RIBERA DE ARRIBA,4,1,2,0,0,126,151,4,0,0,0
2015330105,2.5,2015-03-12,43.38913473071374,-4.832074221398831,1.0,5,33,36,LLANES,4,0,2,0,0,30,31,0,0,0,0
2015390055,8.2,2015-03-12,43.16948919466997,-3.777581130470726,1.0,6,39,97,VEGA DE PAS,4,1,2,0,0,225,240,5,0,313,1264
2015390056,5.199999999999999,2015-03-12,43.15242665429178,-3.7294968394292063,1.0,6,39,97,VEGA DE PAS,4,1,2,0,0,180,210,6,0,333,4470
2015390057,1.2,2015-03-12,43.1648261932287,-3.813626992154165,1.0,6,39,97,VEGA DE PAS,4,1,2,0,0,300,315,6,0,444,185
2015390058,2.2,2015-03-12,43.17001726699433,-3.805379356325469,1.0,6,39,97,VEGA DE PAS,4,1,2,0,0,0,300,0,0,0,340
2015390060,3.1,2015-03-12,43.27433791485193,-3.657281004255875,1.0,6,39,7,ARREDONDO,4,1,2,0,0,0,120,0,0,0,463
2015390061,2.95,2015-03-12,43.20641411962009,-3.596774259186553,1.0,6,39,83,SOBA,4,0,2,0,0,0,290,0,0,0,445
2015440008,2.5,2015-03-12,40.78588578184102,-1.349033852593697,1.0,10,44,153,MONREAL DEL CAMPO,2,0,84,0,0,105,180,10,2,588,3295
2015450095,1.0,2015-03-12,39.75386104000127,-4.755278988183469,1.0,11,45,146,RETAMOSO DE LA JARA,4,1,99,0,0,84,164,3,1,0,0
2015450097,1.7,2015-03-12,40.00042471503863,-4.20267890661627,1.0,11,45,77,HUECAS,4,1,2,0,0,80,84,5,1,0,0
2015500029,1.64,2015-03-12,41.30677817519221,-1.4735341904730532,1.0,10,50,196,ORERA,2,0,12,0,0,84,99,9,1,0,2
2015500030,5.18,2015-03-12,41.22229659550815,-1.821569638448577,1.0,10,50,125,IBDES,5,0,0,0,0,331,425,38,3,0,2566
2015500031,1.07,2015-03-12,41.28097843420209,-1.804716695481548,1.0,10,50,72,CARENAS,4,1,1,0,0,140,170,3,1,0,4
2015500032,3.52,2015-03-12,41.139632911071466,-1.5687217904511792,1.0,10,50,37,ATEA,2,0,12,0,0,115,170,8,2,0,3
2015500033,1.65,2015-03-12,41.74626918764472,-1.1356383918923598,1.0,10,50,8,ALAGÓN,2,1,86,0,0,215,253,10,3,0,1990
2015100175,2.97,2015-03-13,39.399839531915696,-5.593067394047569,1.0,14,10,77,GARCIAZ,2,1,82,0,0,100,306,14,3,0,0
2015100176,11.13,2015-03-13,40.18493816442576,-5.906308311147909,1.0,14,10,130,NAVACONCEJO,2,1,20,0,0,197,462,24,4,0,0
2015100177,1.77,2015-03-13,40.127185989729824,-5.919369721432381,1.0,14,10,184,"TORNO, EL",4,1,99,0,0,226,311,7,3,0,0
2015100179,20.040000000000003,2015-03-13,40.21521156345381,-6.834984191512948,1.0,14,10,72,ELJAS,4,1,2,0,0,1104,1324,3,3,0,0
2015100213,1.77,2015-03-13,40.127185989729824,-5.919369721432381,1.0,14,10,184,"TORNO, EL",4,1,99,0,0,226,311,7,3,0,0
2015130048,5.5,2015-03-13,38.92328134897711,-3.4325182418382054,1.0,11,13,87,VALDEPEÑAS,5,0,0,0,0,126,146,5,1,0,0
2015220025,1.6,2015-03-13,42.00955726044572,0.1784553016495938,1.0,10,22,110,FONZ,4,1,99,0,0,101,240,14,3,0,815
2015240055,3.8,2015-03-13,42.75352644398002,-6.642547489943573,1.0,17,24,196,VEGA DE ESPINAREDA,2,1,21,0,0,122,201,12,3,0,0
2015240065,19.14,2015-03-13,42.28959041288183,-6.713785806798604,1.0,17,24,67,ENCINEDO,4,1,2,0,0,240,335,10,2,0,0
2015270011,1.37,2015-03-13,42.659887953465805,-7.743743976928788,1.0,3,27,16,CHANTADA,4,1,1,0,0,55,95,4,0,0,37819
2015270012,3.0,2015-03-13,42.95209162760823,-6.970992734005487,1.0,3,27,34,NAVIA DE SUARNA,4,1,4,0,0,146,166,15,2,0,10968
2015310050,1.69,2015-03-13,42.28455691511644,-1.583830000281856,1.0,13,31,817,BÁRDENAS REALES,4,0,1,0,0,75,157,8,3,0,0
2015320103,3.23,2015-03-13,42.09150207541602,-7.19446806549306,1.0,3,32,34,"GUDIÑA, A",4,1,1,0,0,127,142,10,1,0,0
2015370040,2.39,2015-03-13,40.70132911471004,-5.781154929127124,1.0,17,37,189,MEMBRIBE DE LA SIERRA,4,0,2,0,0,105,120,10,1,0,0
2015390073,1.4,2015-03-13,43.29391479345188,-3.867848874897825,1.0,6,39,74,SANTA MARIA DE CAYÓN,4,1,2,0,0,130,130,8,1,345,499
2015440009,2.62,2015-03-13,41.03179997023339,-1.3484119244068136,1.0,10,44,33,BÁGUENA,2,1,86,0,0,100,160,11,1,520,6095
2015450100,1.7999999999999998,2015-03-13,39.8775539407286,-4.961328951751988,1.0,11,45,28,CALERA Y CHOZAS,2,1,80,0,0,67,159,10,2,0,0
2015490065,2.57,2015-03-13,41.97684369524031,-6.892138951117942,1.0,17,49,94,HERMISENDE,4,0,1,0,0,157,167,3,0,0,0
2015100184,2.09,2015-03-14,39.21890591955224,-6.112069062504377,1.0,14,10,126,MONTÁNCHEZ,1,0,0,0,0,91,166,2,1,0,0
2015100185,1.1,2015-03-14,40.22706038357184,-6.86808227826055,1.0,14,10,205,VALVERDE DEL FRESNO,2,0,10,0,0,84,94,19,2,0,0
2015100187,1.73,2015-03-14,40.16885092864808,-5.9138170687327465,1.0,14,10,130,NAVACONCEJO,4,1,1,0,0,229,294,5,2,0,0
2015240057,3.51,2015-03-14,42.46866395730079,-5.331758768670251,1.0,17,24,160,SANTAS MARTAS,2,1,22,0,0,0,0,0,0,0,0
2015240058,4.37,2015-03-14,42.63821096078441,-6.182727970214686,1.0,17,24,210,VILLAGATON,4,0,1,0,0,249,302,9,1,0,0
2015240060,21.28,2015-03-14,42.68029728370022,-7.022484049281903,1.0,17,24,198,VEGA DE VALCARCE,4,1,4,0,0,311,311,2,0,0,0
2015240062,3.51,2015-03-14,42.627586259274665,-6.589266130712778,1.0,17,24,64,CUBILLOS DEL SIL,4,1,2,0,0,81,101,3,1,0,0
2015240063,3.0,2015-03-14,42.711941119476336,-6.449234075435663,1.0,17,24,102,NOCEDA DEL BIERZO,4,1,1,0,0,70,70,11,1,0,0
2015290014,1.2,2015-03-14,36.81371940746202,-4.865205696762078,1.0,4,29,40,CASARABONELA,4,0,2,0,0,165,195,23,2,0,0
2015320106,6.9,2015-03-14,42.016733928023626,-7.813561625634985,1.0,3,32,62,PORQUEIRA,4,1,1,0,0,100,160,7,2,0,6367
2015360028,3.48,2015-03-14,42.221277208488544,-8.613910761619175,1.0,3,36,33,MOS,2,0,80,0,0,139,250,27,3,3286,14474
2015360034,2.7,2015-03-14,42.40781254674005,-8.381602454245076,1.0,3,36,25,"LAMA, A",4,1,2,0,0,122,144,7,0,956,0
2015430063,4.1,2015-03-14,41.4236541110151,1.275777760066099,1.0,2,43,142,SARRAL,2,0,12,0,0,466,1535,147,35,0,0
2015450103,2.4,2015-03-14,39.78900139812877,-5.144699691629062,1.0,11,45,17,AZUTÁN,2,0,10,0,0,245,1460,18,4,0,0
2015450106,2.4,2015-03-14,39.81102666087277,-3.454128581480993,1.0,11,45,71,"GUARDIA, LA",2,1,40,0,0,351,351,5,1,0,0
2015490067,6.3,2015-03-14,41.8539294428485,-6.443934993049998,1.0,17,49,69,FIGUERUELA DE ARRIBA,4,0,2,0,0,118,193,4,2,0,0
2015490068,1.92,2015-03-14,41.33487448610546,-6.369010112285402,1.0,17,49,65,FERMOSELLE,4,0,1,0,0,80,130,0,0,0,0
2015490069,15.59,2015-03-14,42.020365901704125,-5.653841026819711,1.0,17,49,21,BENAVENTE,4,1,1,0,0,150,167,3,0,0,0
2015030014,1.0,2015-03-15,38.37940352667323,-0.5715267715356658,1.0,9,3,14,ALACANT/ALICANTE,4,0,99,0,0,74,111,15,3,0,0
2015050040,22.0,2015-03-15,40.3683003621261,-5.571987761757023,1.0,17,5,51,CARRERA LA,4,0,2,0,0,510,525,1,1,0,0
2015100191,1.69,2015-03-15,40.15560155303276,-5.828856248097768,1.0,14,10,130,NAVACONCEJO,2,1,80,0,0,49,376,11,1,0,0
2015100199,4.57,2015-03-15,39.40324505489367,-5.631154164880885,1.0,14,10,77,GARCIAZ,4,1,1,0,0,162,162,6,1,0,0
2015150015,6.0,2015-03-15,43.12683560170657,-8.340329571640831,1.0,3,15,59,ORDES,4,1,5,0,0,164,184,6,1,0,641
2015150016,1.0,2015-03-15,42.68005196991014,-8.836909545505153,1.0,3,15,72,RIANXO,4,1,1,0,0,67,82,6,1,0,0
2015150017,5.5,2015-03-15,43.13413662198154,-8.343128224792844,1.0,3,15,59,ORDES,4,1,5,0,0,143,173,8,2,0,608
2015220029,1.29,2015-03-15,42.01156887739928,-0.4385288643363492,1.0,10,22,206,SANGARRÉN,2,1,10,0,0,99,115,7,2,0,540
2015280030,10.3,2015-03-15,40.1304603412794,-3.597002515337497,1.0,16,28,40,CIEMPOZUELOS,4,0,4,0,0,234,235,23,4,0,0
2015320108,1.44,2015-03-15,42.25079217693815,-8.23808250946361,1.0,3,32,46,MELÓN,4,1,10,0,0,62,77,3,1,0,1672
2015320109,1.3,2015-03-15,41.99245532585356,-7.023039150980272,1.0,3,32,48,"MEZQUITA, A",4,1,1,0,0,60,89,5,1,0,0
2015320110,2.38,2015-03-15,41.937967852570445,-7.6198124401702225,1.0,3,32,28,CUALEDRO,4,1,1,0,0,88,100,5,1,0,0
2015320113,1.79,2015-03-15,42.06765577542845,-7.256896310382212,1.0,3,32,92,VILARIÑO DE CONSO,4,1,2,0,0,67,84,5,1,0,0
2015370043,1.13,2015-03-15,40.98339125287145,-5.502649915048182,1.0,17,37,288,S MORALES,2,1,60,0,0,20,50,7,1,0,0
2015450109,5.5,2015-03-15,39.88145505709111,-4.958119123233506,1.0,11,45,28,CALERA Y CHOZAS,4,1,99,0,0,177,252,4,1,0,0
2015450110,1.2,2015-03-15,40.06500867885136,-4.03626305391176,1.0,11,45,145,RECAS,4,1,99,0,0,150,165,7,1,0,0
2015490073,1.16,2015-03-15,41.97599692525685,-6.899038034757754,1.0,17,49,94,HERMISENDE,4,0,1,0,0,102,184,6,1,0,0
2015050041,5.7,2015-03-16,40.36784714187896,-5.572924430376878,1.0,17,5,51,CARRERA LA,6,0,0,0,0,280,450,9,6,0,0
2015060013,4.69,2015-03-16,38.70567109293268,-5.185764873678602,1.0,14,6,23,CABEZA DEL BUEY,4,1,1,0,0,285,1485,13,0,0,0
2015100201,6.5,2015-03-16,40.17597127262883,-5.650703142696131,1.0,14,10,91,GUIJO DE SANTA BÁRBARA,4,1,2,0,0,283,326,13,2,0,0
2015100207,1.03,2015-03-16,39.34761977700789,-7.265537561452114,1.0,14,10,203,VALENCIA DE ALCÁNTARA,4,1,99,0,0,63,173,9,1,0,0
2015100209,1.71,2015-03-16,40.25105720321871,-5.664965279601435,1.0,14,10,183,TORNAVACAS,2,1,30,0,0,132,1037,31,4,0,0
2015100210,2.5,2015-03-16,39.20424221449858,-6.228628339206934,1.0,14,10,10,ALCUÉSCAR,2,0,20,0,0,135,170,6,0,0,0
2015100216,2.89,2015-03-16,40.138370301548186,-5.6369873003387605,1.0,14,10,91,GUIJO DE SANTA BÁRBARA,4,1,1,0,0,899,899,6,1,0,0
2015100223,5.32,2015-03-16,40.1375621521298,-5.631334206374782,1.0,14,10,91,GUIJO DE SANTA BÁRBARA,4,1,2,0,0,899,899,1,1,0,0
2015100224,1.3,2015-03-16,40.13737485022844,-5.628874032231213,1.0,14,10,91,GUIJO DE SANTA BÁRBARA,4,1,2,0,0,899,899,6,1,0,0
2015100273,84.87,2015-03-16,40.26330691680172,-5.756454994877298,1.0,14,10,107,JERTE,4,1,2,0,0,2763,2763,1,0,0,0
2015150018,50.18,2015-03-16,42.74042589557192,-8.808321577193032,1.0,3,15,42,LOUSAME,2,1,80,0,0,260,522,70,15,0,87230
2015240066,29.98,2015-03-16,42.73908612115246,-6.901025541156759,1.0,17,24,9,BALBOA,4,1,2,0,0,978,1016,4,2,0,0
2015280031,2.0,2015-03-16,40.65893623539903,-3.912377314892313,1.0,16,28,23,"BOALO, EL",5,0,0,0,0,70,71,0,2,0,0
2015320118,4.54,2015-03-16,42.02425936860334,-7.050088150056291,1.0,3,32,48,"MEZQUITA, A",4,1,1,0,0,146,160,13,2,0,0
2015320119,7.3,2015-03-16,42.377949127111286,-7.462976736631177,1.0,3,32,80,"TEIXEIRA, A",4,1,4,0,0,205,210,13,4,0,310
2015320121,2.8,2015-03-16,42.35195760845836,-8.169317207172881,1.0,3,32,40,LEIRO,2,0,80,0,0,105,120,9,2,0,11982
2015320122,1.0,2015-03-16,42.07763689033485,-7.815474189765341,1.0,3,32,90,VILAR DE SANTOS,4,1,1,0,0,55,80,4,1,0,0
2015370044,4.11,2015-03-16,41.19201862264622,-6.634564139806599,1.0,17,37,14,ALDEADAVILA DE LA RIBERA,2,1,12,0,0,175,230,21,2,0,0
2015370045,1.76,2015-03-16,40.71142344277764,-5.597759420731383,1.0,17,37,134,FRESNO ALHANDIGA,4,1,1,0,0,92,155,9,2,0,0
2015370046,1.97,2015-03-16,40.727106835706266,-5.590874960846388,1.0,17,37,310,SIETEIGLESIAS DE TORMES,4,0,1,0,0,132,182,9,1,0,0
2015370048,2.03,2015-03-16,41.23100501481404,-6.508666772652143,1.0,17,37,250,PEREÑA DE LA RIBERA,4,1,1,0,0,67,152,13,1,0,0
2015490074,1.91,2015-03-16,41.97364819662685,-6.666774802888623,1.0,17,49,145,PEDRALBA DE LA PRADERIA,4,0,19,0,0,105,345,17,1,0,0
2015490077,1.4,2015-03-16,41.709876192212704,-6.531574755463709,1.0,17,49,223,TRABAZOS,4,0,2,0,0,70,85,4,1,0,0
2015240069,3.7,2015-03-17,42.33900186736832,-6.66755333572458,1.0,17,24,16,BENUZA,4,0,5,0,0,101,168,0,0,0,0
2015310054,3.3,2015-03-17,43.18163502526633,-1.5541738197529242,1.0,13,31,50,BAZTAN,4,0,2,0,0,-1195,100,3,1,0,0
2015310055,1.2,2015-03-17,42.7029984634835,-1.3437517494004778,1.0,13,31,242,URRAUL BAJO,5,0,0,0,0,-1082,151,7,2,0,0
2015330106,3.0,2015-03-17,43.31083677838933,-5.4116705627392365,1.0,5,33,49,PILOÑA,2,0,30,0,0,115,128,4,2,0,0
2015330108,2.0,2015-03-17,43.081392682143154,-5.692771917988198,1.0,5,33,2,ALLER,4,1,2,0,0,119,120,0,0,0,0
2015390074,5.5,2015-03-17,43.19344285670659,-3.7640641101837855,1.0,6,39,82,SELAYA,4,1,2,0,0,0,215,0,0,0,847
2015390075,1.8,2015-03-17,43.07719547184978,-3.888123585877607,1.0,6,39,39,LUENA,4,0,2,0,0,120,180,8,0,393,279
2015490078,1.0,2015-03-17,41.83428005587558,-6.237023062575407,1.0,17,49,176,RIOFRIO DE ALISTE,4,0,2,0,0,65,70,0,0,0,0
2015230012,8.08,2015-03-18,37.929729978978905,-3.314197080647038,1.0,4,23,92,ÚBEDA,4,0,2,0,0,215,235,23,2,0,0
2015240070,1.1,2015-03-18,42.57105426032604,-6.429646611249387,1.0,17,24,49,CASTROPODAME,2,0,84,0,0,145,160,13,2,0,0
2015240073,1.74,2015-03-18,42.27249977925537,-6.671061590991602,1.0,17,24,67,ENCINEDO,4,1,1,0,0,0,0,0,0,0,0
2015320136,4.23,2015-03-18,42.00251521238924,-7.150523997215487,1.0,3,32,34,"GUDIÑA, A",4,1,1,0,0,85,110,17,3,0,0
2015320139,2.44,2015-03-18,42.31620904090845,-7.364321850098057,1.0,3,32,29,CHANDREXA DE QUEIXA,4,1,1,0,0,70,80,9,0,0,2778
2015320141,2.34,2015-03-18,42.02611852670724,-7.049258266637921,1.0,3,32,48,"MEZQUITA, A",4,1,1,0,0,93,113,9,1,0,0
2015330109,1.5,2015-03-18,43.4213749251431,-6.420306646518751,1.0,5,33,34,VALDÉS,4,1,2,0,0,133,134,0,0,0,0
2015330111,1.2999999999999998,2015-03-18,43.00620885214649,-6.970929522823964,1.0,5,33,28,IBIAS,5,0,0,0,0,174,229,4,4,0,0
2015330114,3.0,2015-03-18,43.230051920839216,-5.606526869700349,1.0,5,33,32,LAVIANA,4,1,2,0,0,88,98,3,0,0,0
2015330115,10.0,2015-03-18,43.393454396145565,-6.632948471249223,1.0,5,33,73,TINEO,4,1,2,0,0,358,409,9,0,0,0
2015360053,1.15,2015-03-18,42.513707384364665,-8.521608901053712,1.0,3,36,12,COTOBADE,4,1,1,0,0,107,203,9,1,1416,1123
2015390062,1.5,2015-03-18,43.2133100127958,-4.080859005798953,1.0,6,39,21,CIEZA,4,0,2,0,0,95,135,6,0,192,231
2015390063,9.5,2015-03-18,43.15528811638972,-3.7602430594475584,1.0,6,39,97,VEGA DE PAS,4,1,2,0,0,180,225,6,1,410,23859
2015390076,8.5,2015-03-18,43.15909633883113,-3.7425408042279975,1.0,6,39,97,VEGA DE PAS,4,0,2,0,0,0,330,0,0,0,20733
2015490083,1.39,2015-03-18,41.94139641020102,-6.723950282282609,1.0,17,49,145,PEDRALBA DE LA PRADERIA,4,1,19,0,0,113,138,3,0,0,0
2015150029,2.17,2015-03-19,42.61822002980546,-9.040665190737998,1.0,3,15,71,PORTO DO SON,4,1,1,0,0,45,95,18,3,0,1269
2015150030,6.5,2015-03-19,43.01664136749025,-8.205537470303389,1.0,3,15,38,FRADES,4,1,99,0,0,201,224,32,4,0,2241
2015150032,4.029999999999999,2015-03-19,42.96224112333382,-8.56627345578267,1.0,3,15,78,SANTIAGO DE COMPOSTELA,2,1,80,0,0,105,173,20,1,0,6589
2015250077,2.6,2015-03-19,42.82711762081276,0.7016130915740455,1.0,2,25,121,LES,5,0,0,0,0,1095,1155,7,1,0,0
2015310057,1.0,2015-03-19,43.082851939956015,-1.7365724052946492,1.0,13,31,137,BEINTZA-LABAIEN,4,1,2,0,0,-942,122,4,2,0,0
2015320147,1.28,2015-03-19,41.89564572162973,-7.39593003713258,1.0,3,32,85,VERÍN,4,1,19,0,0,61,125,6,2,0,1452
2015320148,10.57,2015-03-19,41.87092675631106,-7.380160508483593,1.0,3,32,91,VILARDEVÓS,4,1,1,0,0,76,120,19,5,0,0
2015320149,6.8,2015-03-19,41.88488748111018,-7.266129063846956,1.0,3,32,91,VILARDEVÓS,4,1,1,0,0,300,320,13,3,0,20144
2015360056,2.87,2015-03-19,42.56993641440827,-7.956891774003971,1.0,3,36,47,RODEIRO,4,1,1,0,0,155,160,9,1,1280,0
2015360057,2.33,2015-03-19,42.67987579509643,-8.016911268411421,1.0,3,36,47,RODEIRO,4,1,4,0,0,113,126,13,2,1973,1861
2015490085,1.78,2015-03-19,41.9821090122185,-6.68177951290274,1.0,17,49,145,PEDRALBA DE LA PRADERIA,4,1,99,0,0,120,150,9,1,0,0
2015150035,10.65,2015-03-20,42.758730501166745,-8.93256466685175,1.0,3,15,71,PORTO DO SON,4,1,10,0,0,424,529,21,6,0,25104
2015150036,1.5,2015-03-20,42.966056603388616,-8.36669657593894,1.0,3,15,60,OROSO,4,1,4,0,0,70,130,7,1,0,2242
2015240074,1.5,2015-03-20,42.834673075175765,-6.646985652179511,1.0,17,24,112,PERANZANES,4,1,2,0,0,114,164,8,2,0,0
2015320151,2.39,2015-03-20,42.12669986243012,-7.218802156604843,1.0,3,32,92,VILARIÑO DE CONSO,4,1,1,0,0,79,141,14,2,0,0
2015320153,3.3800000000000003,2015-03-20,41.95061894677915,-7.024441479878425,1.0,3,32,48,"MEZQUITA, A",4,1,1,0,0,555,1175,44,10,0,891
2015360064,72.0,2015-03-20,42.442478248017096,-8.390344620200198,1.0,3,36,25,"LAMA, A",4,1,99,0,0,274,417,17,7,3498,0
2015360069,4.59,2015-03-20,42.57672063973489,-7.949333544912422,1.0,3,36,47,RODEIRO,4,1,1,0,0,120,168,14,2,1753,0
2015360070,39.96,2015-03-20,42.30588583247711,-8.713588383879344,1.0,3,36,29,MOAÑA,2,1,40,0,1,570,983,55,14,17222,82569
2015360072,1.45,2015-03-20,42.56545567452565,-8.028017784360285,1.0,3,36,16,DOZÓN,4,1,1,0,0,70,93,5,1,692,0
2015490088,2.5,2015-03-20,41.76108395267618,-6.497905974607284,1.0,17,49,223,TRABAZOS,4,0,2,0,0,110,130,5,0,0,0
2015150042,1.41,2015-03-21,43.11134588155241,-8.443431839911351,1.0,3,15,59,ORDES,4,1,99,0,0,150,165,10,1,0,348
2015150045,1.3,2015-03-21,43.11360361376417,-8.439232334653537,1.0,3,15,59,ORDES,4,1,99,0,0,180,272,4,1,0,0
2015240078,5.3,2015-03-21,42.72674544881144,-6.568947271489941,1.0,17,24,19,BERLANGA DEL BIERZO,2,0,84,0,0,124,193,12,2,0,0
2015240079,76.54,2015-03-21,42.901593154936464,-6.697631632023071,1.0,17,24,112,PERANZANES,4,1,5,0,0,928,958,10,2,0,0
2015270019,2.0,2015-03-21,42.59376379088008,-7.88687371508624,1.0,3,27,16,CHANTADA,4,1,10,0,0,95,131,8,1,0,316
2015320159,2.5,2015-03-21,42.54823437748869,-7.968007858788231,1.0,3,32,76,SAN CRISTOVO DE CEA,4,1,99,0,0,162,198,8,1,0,1827
2015320160,5.52,2015-03-21,41.9006102332361,-8.186646134996755,1.0,3,32,42,LOBIOS,4,1,1,0,0,385,680,10,2,0,32616
2015320164,1.4,2015-03-21,42.33927898585655,-8.184633967776405,1.0,3,32,18,CARBALLEDA DE AVIA,4,1,99,0,0,88,230,13,3,0,223
2015360079,2.86,2015-03-21,42.74030884145688,-8.530609623982025,1.0,3,36,17,"ESTRADA, A",4,1,1,0,0,95,161,10,3,1447,3082
2015360081,1.18,2015-03-21,42.60916533792047,-8.37015376874926,1.0,3,36,18,FORCAREI,4,1,1,0,0,80,159,7,1,955,0
2015150047,43.15,2015-03-22,43.09464974881477,-8.456325225523418,1.0,3,15,59,ORDES,4,1,5,0,0,191,307,37,7,0,17138
2015150048,5.99,2015-03-22,43.01468854725148,-9.12892547461414,1.0,3,15,34,DUMBRÍA,4,1,99,0,0,102,150,13,6,0,4999
2015150049,1.19,2015-03-22,43.15088182387802,-8.615317772155835,1.0,3,15,19,CARBALLO,4,1,19,0,0,139,149,11,2,0,897
2015240081,3.14,2015-03-22,42.67180872118048,-6.805625838467099,1.0,17,24,209,VILLAFRANCA DEL BIERZO,2,1,10,0,0,130,184,12,2,0,0
2015320175,11.3,2015-03-22,42.54144142934735,-8.046706637437417,1.0,3,32,61,PIÑOR,4,1,1,0,0,222,315,5,1,0,0
2015360083,6.0,2015-03-22,42.15538417256052,-8.562977675948725,1.0,3,36,42,PONTEAREAS,4,1,99,0,0,259,450,24,9,9535,7620
2015360086,2.3,2015-03-22,42.550508529634506,-8.79937876882179,1.0,3,36,61,VILANOVA DE AROUSA,4,1,99,0,0,67,170,17,3,1205,10449
2015360087,24.41,2015-03-22,42.62715806630419,-7.969839159535007,1.0,3,36,47,RODEIRO,4,1,19,0,0,320,477,41,13,13178,1634
2015360088,30.7,2015-03-22,42.29296212568108,-8.38568709575493,1.0,3,36,13,COVELO,4,1,19,0,0,519,551,30,4,7385,8593
2015490090,70.47,2015-03-22,41.97650506275876,-6.673732987239635,1.0,17,49,145,PEDRALBA DE LA PRADERIA,4,1,1,0,0,510,1335,32,7,0,0
2015490091,17.3,2015-03-22,41.95398514630437,-6.915294063592615,1.0,17,49,94,HERMISENDE,4,1,5,0,0,233,263,2,2,0,0
2015490092,7.59,2015-03-22,41.96037138628316,-6.710277395383547,1.0,17,49,145,PEDRALBA DE LA PRADERIA,4,0,1,0,0,180,190,1,0,0,0
2015490093,5.26,2015-03-22,41.96039094525916,-6.71050775781767,1.0,17,49,145,PEDRALBA DE LA PRADERIA,4,0,10,0,0,180,359,0,0,0,0
2015150051,4.46,2015-03-23,43.19942881374918,-8.70032348167531,1.0,3,15,19,CARBALLO,4,1,19,0,0,125,134,15,4,0,4764
2015360090,6.3,2015-03-23,42.45600218513317,-8.690636828601836,1.0,3,36,41,POIO,4,1,99,0,0,131,258,28,9,4913,15637
2015360092,384.0,2015-03-23,42.21783355885755,-8.544300493564895,1.0,3,36,42,PONTEAREAS,4,1,1,0,0,1558,2361,192,40,469120,532691
2015320182,19.88,2015-03-24,42.07301376570333,-7.263385967880938,1.0,3,32,92,VILARIÑO DE CONSO,4,1,2,0,0,166,191,20,4,0,0
2015360096,8.23,2015-03-24,42.151919385776665,-8.561319122204317,1.0,3,36,42,PONTEAREAS,4,1,10,0,0,230,630,25,3,1536,29028
2015360098,6.5,2015-03-24,42.57153327821784,-8.021526702717948,1.0,3,36,16,DOZÓN,4,1,19,0,0,117,199,11,2,1711,568
2015490094,33.800000000000004,2015-03-24,41.97011034935284,-6.688918646665837,1.0,17,49,145,PEDRALBA DE LA PRADERIA,6,0,0,0,0,430,2755,53,8,0,0
2015150052,1.12,2015-03-25,43.311178068388216,-8.629981097258511,1.0,3,15,19,CARBALLO,4,1,5,0,0,155,165,14,2,0,0
2015240082,2.2,2015-03-25,42.79121230236733,-6.530732420566165,1.0,17,24,110,PARAMO DEL SIL,4,1,1,0,0,420,420,11,3,0,0
2015320185,4.24,2015-03-25,42.02068590475282,-7.069377086474547,1.0,3,32,48,"MEZQUITA, A",4,1,1,0,0,68,87,12,3,0,0
2015320190,24.99,2015-03-25,42.037306499176665,-7.146651993879728,1.0,3,32,34,"GUDIÑA, A",4,1,1,0,0,275,662,30,6,0,4645
2015360105,3.5,2015-03-25,42.6177121972168,-8.616714117764955,1.0,3,36,5,CALDAS DE REIS,4,1,10,0,0,107,357,15,3,710,7067
2015360106,5.4,2015-03-25,42.32909661859487,-8.555866297193539,1.0,3,36,53,SOUTOMAIOR,5,0,0,0,0,94,247,40,7,10120,9329
2015240084,2.5,2015-03-26,42.55950514019582,-6.964353649385997,1.0,17,24,103,OENCIA,4,1,1,0,0,0,0,0,0,0,0
2015240085,1.0,2015-03-26,42.52436810488468,-6.926072326565733,1.0,17,24,165,SOBRADO,4,1,1,0,0,0,0,0,0,0,0
2015310059,6.0,2015-03-27,43.10989285564469,-1.3041710093983352,1.0,13,31,248,LUZAIDE/VALCARLOS,4,1,2,0,0,0,0,0,0,0,0
2015370054,1.67,2015-03-27,41.07251309544319,-6.599083993011062,1.0,17,37,367,VILLASBUENAS,2,1,21,0,0,135,165,3,1,0,0
2015060015,2.45,2015-03-28,38.583135666720295,-6.162855514103628,1.0,14,6,69,HORNACHOS,2,0,12,0,0,127,147,2,1,0,0
2015320195,4.22,2015-03-28,42.02261783415161,-7.074476048093708,1.0,3,32,48,"MEZQUITA, A",4,1,1,0,0,136,170,11,2,0,0
2015370055,1.08,2015-03-28,40.55001068781751,-5.863583422773029,1.0,17,37,197,MONLEON,4,1,1,0,0,49,64,1,0,0,0
2015370056,24.32,2015-03-28,41.2600656287307,-6.457246187879621,1.0,17,37,364,VILLARINO DE LOS AIRES,2,1,21,0,0,395,540,5,2,0,0
2015370058,4.22,2015-03-28,40.25873812559954,-6.829579699507632,1.0,17,37,221,NAVASFRIAS,4,1,2,0,0,205,1425,3,1,0,0
2015390065,6.41,2015-03-28,43.09687078621219,-4.739102862061558,1.0,6,39,15,CAMALEÑO,4,0,2,0,0,1430,2810,12,1,1156,988
2015490098,1.12,2015-03-28,42.174434705229935,-6.654349174934975,1.0,17,49,189,S JUSTO,4,0,10,0,0,166,196,8,1,0,0
2015100229,7.81,2015-03-29,40.22887053579552,-6.806412364821703,1.0,14,10,72,ELJAS,4,1,2,0,0,195,375,22,2,0,0
2015130050,3.0,2015-03-29,39.06572269698635,-3.875921794152181,1.0,11,13,31,CARRIÓN DE CALATRAVA,5,0,0,0,0,113,134,12,2,0,0
2015310060,1.5,2015-03-29,42.37158825236468,-1.5786090458955309,1.0,13,31,220,SANTACARA,5,0,0,0,0,-18,192,2,1,0,0
2015320198,2.1,2015-03-29,42.19433468855599,-7.222280969457841,1.0,3,32,92,VILARIÑO DE CONSO,4,1,2,0,0,120,130,4,0,0,0
2015320199,5.05,2015-03-29,41.84883541700542,-7.380910802487746,1.0,3,32,85,VERÍN,4,1,99,0,0,168,203,18,4,0,16512
2015330118,1.16,2015-03-29,43.15887914752291,-6.224973271178433,1.0,5,33,68,SOMIEDO,4,0,2,0,0,129,169,5,4,0,0
2015330122,1.5,2015-03-29,43.34672760319173,-6.1189836138711495,1.0,5,33,26,GRADO,4,1,2,0,0,64,86,4,2,0,0
2015340016,4.16,2015-03-29,42.22293103486556,-4.4152642760373695,1.0,17,34,180,TAMARA DE CAMPOS,4,1,1,0,0,0,0,0,0,0,0
2015340017,1.18,2015-03-29,42.75433203056206,-4.268084701749744,1.0,17,34,135,POMAR DE VALDIVIA,4,0,1,0,0,61,91,5,0,0,0
2015370059,3.63,2015-03-29,41.15848367422208,-6.654693032851696,1.0,17,37,190,MIEZA,2,1,21,0,0,75,131,3,1,0,0
2015490099,3.5,2015-03-29,41.995870341266695,-5.895828553390186,1.0,17,49,117,MICERECES DE TERA,4,1,99,0,0,120,165,8,0,0,0
2015490103,3.8,2015-03-29,41.60294045956555,-6.026251209926957,1.0,17,49,237,VIDEMALA,4,0,5,0,0,135,150,4,1,0,0
2015020037,12.15,2015-03-30,39.39252445578561,-1.53542650422594,1.0,11,2,79,VILLAMALEA,2,0,12,0,0,317,1732,38,5,0,0
2015050046,14.0,2015-03-30,40.4146149025519,-4.974036965069627,1.0,17,5,101,HOYOCASERO,2,0,21,0,0,310,370,8,5,0,0
2015100235,6.26,2015-03-30,40.16278527448289,-5.880507962327871,1.0,14,10,130,NAVACONCEJO,2,1,80,0,0,263,273,11,2,0,0
2015110007,2.42,2015-03-30,36.483820350619375,-5.444522173888925,1.0,4,11,21,JIMENA DE LA FRONTERA,2,0,30,0,0,321,1395,27,1,0,0
2015160058,1.49,2015-03-30,39.6797763474648,-1.6128980727317388,1.0,11,16,82,ENGUÍDANOS,2,0,12,0,0,100,350,4,1,0,0
2015160060,7.5,2015-03-30,40.202184812102246,-1.918424668692396,1.0,11,16,78,CUENCA,2,0,30,0,0,229,2739,26,7,0,0
2015240092,7.8,2015-03-30,42.579868877156535,-6.830712314286611,1.0,17,24,59,CORULLON,3,1,99,0,0,257,348,12,5,0,0
2015240093,9.5,2015-03-30,42.52937789534645,-6.931475141809541,1.0,17,24,103,OENCIA,3,1,99,0,0,1035,1080,16,4,0,0
2015240094,1.0,2015-03-30,42.3237355756927,-6.542678385448704,1.0,17,24,43,CASTRILLO DE CABRERA,4,1,1,0,0,181,181,0,0,0,0
2015240136,1.91,2015-03-30,42.464933054661074,-6.054872826259872,1.0,17,24,8,ASTORGA,4,1,1,0,0,68,68,4,1,0,0
2015320204,8.0,2015-03-30,42.3095344908232,-8.222607855727246,1.0,3,32,18,CARBALLEDA DE AVIA,4,1,1,0,0,266,294,8,2,0,0
2015320205,3.5,2015-03-30,41.96698924317593,-7.567824268620523,1.0,3,32,28,CUALEDRO,4,1,1,0,0,170,190,16,2,0,0
2015330123,2.0,2015-03-30,43.36305639960039,-6.263892673722738,1.0,5,33,59,SALAS,4,1,2,0,0,65,66,0,0,0,0
2015330124,11.02,2015-03-30,43.30712479273759,-5.998762563436075,1.0,5,33,44,OVIEDO,4,0,2,0,0,300,353,8,3,0,0
2015330129,5.32,2015-03-30,43.31706138518264,-6.270928410632685,1.0,5,33,5,BELMONTE DE MIRANDA,2,0,21,0,0,90,117,8,3,0,0
2015330131,2.0,2015-03-30,43.21312718457282,-6.002392057069381,1.0,5,33,53,QUIRÓS,4,1,2,0,0,56,109,3,1,0,0
2015390066,6.0,2015-03-30,43.23406576834961,-3.480502460140222,1.0,6,39,83,SOBA,4,1,2,0,0,0,1050,0,0,0,924
2015490105,2.29,2015-03-30,41.76900784083461,-6.332097817094456,1.0,17,49,209,S VITERO,4,0,1,0,0,68,145,3,1,0,0
2015490106,5.0,2015-03-30,41.50884260317287,-5.980263037041382,1.0,17,49,135,MUELAS DEL PAN,2,0,82,0,0,168,243,12,2,0,0
2015100236,7.61,2015-03-31,40.05745354747489,-5.8269941767653215,1.0,14,10,138,PASARÓN DE LA VERA,4,1,1,0,0,398,1688,33,3,0,0
2015190061,1.0,2015-03-31,41.12947207139722,-3.2329610594368634,1.0,11,19,311,VALVERDE DE LOS ARROYOS,5,0,0,0,0,53,168,5,1,0,0
2015230014,1.06,2015-03-31,37.65574021244742,-3.592699611917313,1.0,4,23,18,CAMBIL,2,0,12,0,0,165,310,34,0,0,0
2015240096,4.0,2015-03-31,42.54335608436932,-5.793958088760856,1.0,17,24,55,CIMANES DEL TEJAR,2,1,22,0,0,156,268,15,2,0,0
2015240097,1.0,2015-03-31,42.69782311752768,-6.571866034847809,1.0,17,24,169,TORENO,4,1,19,0,0,91,133,3,3,0,0
2015250082,26.62,2015-03-31,42.60972442787495,1.2260801727213664,1.0,2,25,901,VALL DE CARDÓS,2,0,20,0,0,369,2880,43,14,0,0
2015260014,1.79,2015-03-31,42.38001907340768,-2.493374526431244,1.0,7,26,59,ENTRENA,4,1,2,0,0,36,182,11,2,4943,96
2015270023,1.0,2015-03-31,42.599639269206094,-7.887268902536261,1.0,3,27,16,CHANTADA,4,1,1,0,0,51,111,12,2,0,0
2015320207,14.03,2015-03-31,41.83583092687434,-8.123840172289754,1.0,3,32,42,LOBIOS,2,1,80,0,0,605,675,66,16,0,27386
2015320209,5.8,2015-03-31,42.02009509225678,-7.079250453885538,1.0,3,32,48,"MEZQUITA, A",4,1,1,0,0,158,215,10,3,0,2366
2015320211,2.47,2015-03-31,42.48126043050757,-7.756789682797359,1.0,3,32,59,"PEROXA, A",5,0,0,0,0,65,154,14,2,0,4249
2015320212,3.21,2015-03-31,42.169427039851975,-7.042704638117612,1.0,3,32,86,VIANA DO BOLO,4,1,1,0,0,131,184,23,2,0,0
2015320213,3.57,2015-03-31,41.97121409504848,-7.953261142474176,1.0,3,32,51,MUIÑOS,2,1,80,0,0,95,181,8,6,0,2594
2015330135,1.5,2015-03-31,43.27679329347807,-6.2969822598804415,1.0,5,33,5,BELMONTE DE MIRANDA,4,1,2,0,0,74,109,11,2,0,0
2015330136,2.0,2015-03-31,43.427219597788735,-5.577248559223563,1.0,5,33,65,SARIEGO,2,1,80,0,0,140,152,3,1,0,0
2015330139,11.02,2015-03-31,43.32934868793587,-6.183584235319033,1.0,5,33,5,BELMONTE DE MIRANDA,4,0,2,0,0,362,383,7,2,0,0
2015330141,15.0,2015-03-31,43.4049053553992,-4.845245090806826,1.0,5,33,36,LLANES,4,1,2,0,0,99,214,3,2,0,0
2015331548,6.93,2015-03-31,43.05469879445938,-5.806088511425785,1.0,5,33,33,LENA,4,1,2,0,0,0,80,0,0,0,0
2015490110,3.62,2015-03-31,41.9433909491313,-5.836166274680156,1.0,17,49,272,VILLAVEZA DE VALVERDE,4,0,1,0,0,66,96,4,2,0,0
2015050047,6.8,2015-04-01,40.40782102005588,-5.665616379618841,1.0,17,5,199,S BARTOLOME DE BEJAR,4,0,2,0,0,205,225,9,2,0,0
2015180022,2.4,2015-04-01,37.03287682798882,-3.674208873967928,1.0,4,18,150,PADUL,4,1,99,0,1,169,364,25,3,332,0
2015190066,2.0,2015-04-01,40.93727915534823,-2.944013632335298,1.0,11,19,156,JADRAQUE,2,1,80,0,0,132,142,4,1,0,0
2015230016,1.05,2015-04-01,38.40873946308152,-2.612967608416541,1.0,4,23,82,SILES,5,0,0,0,0,205,325,30,3,0,0
2015330142,4.0,2015-04-01,43.35694487072352,-6.619166354271381,1.0,5,33,73,TINEO,4,1,2,0,0,93,113,12,3,0,0
2015330143,6.14,2015-04-01,43.32241882971512,-6.1344514744053456,1.0,5,33,26,GRADO,4,0,2,0,0,49,97,5,1,0,0
2015330144,2.77,2015-04-01,43.346005572734086,-6.00784742912613,1.0,5,33,26,GRADO,2,0,81,0,0,71,147,5,1,0,0
2015330147,13.0,2015-04-01,43.20070399419079,-6.381111002106113,1.0,5,33,11,CANGAS DEL NARCEA,4,0,2,0,0,115,128,3,1,0,0
2015330148,3.5,2015-04-01,43.28905765711512,-5.595365149077892,1.0,5,33,60,SAN MARTÍN DEL REY AURELIO,4,0,2,0,0,66,111,3,1,0,0
2015330149,1.5,2015-04-01,43.424367818668095,-5.590679102041503,1.0,5,33,65,SARIEGO,2,1,80,0,0,61,73,5,1,0,0
2015330150,2.0,2015-04-01,43.29472402598718,-6.229449742425484,1.0,5,33,5,BELMONTE DE MIRANDA,4,1,2,0,0,248,278,7,1,0,0
2015330151,1.5,2015-04-01,43.09196029988134,-6.507238182816601,1.0,5,33,11,CANGAS DEL NARCEA,4,0,2,0,0,135,178,5,1,0,0
2015010001,1.2,2015-04-02,43.15879826714996,-2.9625452659365137,1.0,1,1,36,LLODIO/LAUDIO,5,0,0,0,0,389,1470,9,2,0,0
2015100242,4.19,2015-04-02,40.350393228566055,-5.80174813184441,1.0,14,10,78,"GARGANTA, LA",2,1,80,0,0,932,952,8,1,0,0
2015150056,1.5,2015-04-02,43.01609597464738,-7.967926144149257,1.0,3,15,83,TOQUES,4,1,1,0,0,68,120,6,1,0,0
2015160062,4.0,2015-04-02,40.10876443592559,-1.5898602502633536,1.0,11,16,205,TEJADILLOS,3,0,34,0,0,72,202,6,1,0,0
2015190070,2.0,2015-04-02,41.19341790449106,-2.686543189158559,1.0,11,19,257,SIGÜENZA,4,1,99,0,0,64,79,1,0,0,0
2015240101,4.9,2015-04-02,42.6336995589554,-6.905133287608598,1.0,17,24,171,TRABADELO,2,1,30,0,0,165,205,30,4,0,0
2015240105,69.0,2015-04-02,42.43465347385119,-6.478046682201691,1.0,17,24,115,PONFERRADA,4,0,2,0,0,983,1088,18,2,0,0
2015240106,12.5,2015-04-02,42.72197679579496,-6.46307722405052,1.0,17,24,169,TORENO,4,1,1,0,0,1025,1280,11,3,0,0
2015310064,8.2,2015-04-02,42.99169899754785,-1.174970208771036,1.0,13,31,195,ORBAITZETA,2,0,21,0,0,-1161,178,4,3,0,0
2015310065,2.0,2015-04-02,43.16549607954058,-1.5897464460624542,0.0,13,31,54,BERTIZARANA,4,0,2,0,0,59,101,5,2,0,0
2015320224,1.0,2015-04-02,41.834559982414135,-8.128446051022653,1.0,3,32,42,LOBIOS,6,0,0,0,0,350,4545,71,12,0,3884
2015320225,2.8,2015-04-02,42.016189395044215,-7.080503268988895,1.0,3,32,34,"GUDIÑA, A",4,1,2,0,0,53,69,5,1,0,0
2015320226,11.59,2015-04-02,41.84137567633209,-7.564956346933776,1.0,3,32,53,OÍMBRA,4,1,14,0,0,177,219,42,11,0,8
2015320229,1.7,2015-04-02,41.932264039001375,-7.616594380285363,1.0,3,32,28,CUALEDRO,4,1,1,0,0,119,143,6,4,0,0
2015330153,1.2,2015-04-02,43.15305747269466,-6.204440472191784,1.0,5,33,68,SOMIEDO,4,0,2,0,0,170,201,3,3,0,0
2015330157,2.4,2015-04-02,43.375560012307886,-5.307772596418957,1.0,5,33,49,PILOÑA,4,0,99,0,0,51,81,3,2,0,0
2015330158,2.0,2015-04-02,43.23212314105658,-6.189780600181296,1.0,5,33,26,GRADO,4,1,2,0,0,144,154,13,1,0,0
2015330159,7.0,2015-04-02,43.30110880460531,-6.071667721008318,1.0,5,33,26,GRADO,4,1,2,0,0,67,90,3,1,0,0
2015330161,6.0,2015-04-02,43.34558946326474,-5.235523085031225,1.0,5,33,49,PILOÑA,4,1,2,0,0,101,141,4,2,0,0
2015330162,2.19,2015-04-02,43.32524217147683,-5.584757960590758,1.0,5,33,6,BIMENES,4,0,2,0,0,86,100,3,1,0,0
2015330168,9.22,2015-04-02,43.13245626824846,-5.704958796989792,1.0,5,33,2,ALLER,4,0,2,0,0,82,85,2,1,0,0
2015330172,24.7,2015-04-02,43.28897864656747,-6.746510209528102,1.0,5,33,1,ALLANDE,4,0,5,0,0,1103,1134,20,3,0,0
2015370065,3.85,2015-04-02,41.14274627653603,-6.712774471808282,1.0,17,37,190,MIEZA,4,1,1,0,0,190,322,11,2,0,0
2015390077,56.0,2015-04-02,43.15662985737602,-3.719866813797028,1.0,6,39,97,VEGA DE PAS,4,1,2,0,0,0,2220,0,0,0,8627
2015390078,2.0,2015-04-02,43.39188884742433,-3.268939589397777,1.0,6,39,20,CASTRO-URDIALES,4,0,2,0,0,203,276,3,0,92,308
2015390079,1.6,2015-04-02,43.16611240355085,-3.810027336672244,1.0,6,39,97,VEGA DE PAS,4,1,2,0,0,0,295,0,0,0,247
2015390080,3.8,2015-04-02,43.24522448621235,-3.763368367835352,1.0,6,39,81,SARO,4,1,2,0,0,30,60,11,0,195,602
2015390081,2.8,2015-04-02,43.16881882183784,-3.7429538283284898,1.0,6,39,97,VEGA DE PAS,4,1,2,0,0,0,145,0,0,0,15885
2015390082,4.2,2015-04-02,43.15188306117386,-3.8353227721037615,1.0,6,39,71,SAN PEDRO DEL ROMERAL,4,0,2,0,0,0,160,0,0,0,647
2015400005,3.5,2015-04-02,40.76694032707229,-4.191876824538631,1.0,17,40,76,ESPINAR EL,2,0,94,0,0,308,420,12,5,0,0
2015490114,1.0,2015-04-02,41.75385484533668,-6.333237291873869,1.0,17,49,209,S VITERO,4,0,99,0,0,55,80,4,1,0,0
2015490115,1.1,2015-04-02,41.66130513859579,-6.160040960663951,1.0,17,49,184,SAMIR DE LOS CAÑOS,4,0,2,0,0,79,159,6,1,0,0
2015490116,2.4,2015-04-02,41.97691941875588,-6.896536102915901,1.0,17,49,94,HERMISENDE,4,0,1,0,0,145,205,3,2,0,0
2015050049,1.0,2015-04-03,41.1224531504797,-4.93231830039884,1.0,17,5,134,MORALEJA DE MATACABRAS,4,1,1,0,0,57,107,5,1,0,0
2015100274,60.58,2015-04-03,40.24273951969585,-5.793363904980436,1.0,14,10,107,JERTE,4,1,2,0,0,593,653,33,6,0,0
2015150060,1.15,2015-04-03,42.822871315284296,-8.924861234429489,1.0,3,15,62,OUTES,4,1,19,0,0,57,110,37,7,0,5697
2015240108,25.6,2015-04-03,42.80067787570887,-6.542887301108599,1.0,17,24,110,PARAMO DEL SIL,4,1,1,0,0,381,478,11,3,0,0
2015240109,19.8,2015-04-03,42.59832864499556,-6.860667379906643,1.0,17,24,59,CORULLON,3,1,99,0,0,175,352,29,5,0,0
2015240110,1.07,2015-04-03,42.81349328807173,-6.498931359718037,1.0,17,24,110,PARAMO DEL SIL,4,1,1,0,0,115,137,3,2,0,0
2015240112,2.7,2015-04-03,42.617145404115,-6.510482972510953,1.0,17,24,57,CONGOSTO,4,1,1,0,0,187,187,10,1,0,0
2015240113,20.5,2015-04-03,42.315589713912814,-6.528280438886541,1.0,17,24,43,CASTRILLO DE CABRERA,4,0,1,0,0,306,306,0,0,0,0
2015270025,33.0,2015-04-03,43.549752213849,-7.697360220497854,1.0,3,27,38,OUROL,2,1,21,0,0,380,967,24,7,0,0
2015270028,1.14,2015-04-03,42.92353744014404,-7.900670168081776,1.0,3,27,40,PALAS DE REI,4,1,1,0,0,106,141,8,2,0,0
2015310067,1.0,2015-04-03,42.93914521407122,-1.1280383713385207,1.0,13,31,185,OCHAGAVÍA,2,0,22,0,0,-1131,160,3,1,0,0
2015320232,1.3,2015-04-03,42.32676133328759,-7.370468673634223,1.0,3,32,29,CHANDREXA DE QUEIXA,4,1,2,0,0,80,100,10,0,0,176
2015320233,1.61,2015-04-03,42.22506339582903,-7.180403057459063,1.0,3,32,86,VIANA DO BOLO,4,1,1,0,0,155,165,4,0,0,0
2015320234,1.23,2015-04-03,42.02094748287267,-7.071543204380039,1.0,3,32,48,"MEZQUITA, A",4,1,1,0,0,79,89,7,3,0,0
2015320238,9.9,2015-04-03,41.97537048844723,-7.243387511924057,1.0,3,32,71,RIÓS,4,1,1,0,0,265,298,21,5,0,0
2015320239,2.0,2015-04-03,41.974952588837496,-7.247864671701708,1.0,3,32,71,RIÓS,4,1,1,0,0,130,135,10,1,0,0
2015330174,13.5,2015-04-03,43.38935265448667,-6.571339624943831,1.0,5,33,73,TINEO,4,0,2,0,0,146,176,5,1,0,0
2015330175,1.5,2015-04-03,43.32638989802823,-6.129442361522004,1.0,5,33,26,GRADO,4,1,2,0,0,130,143,4,2,0,0
2015330176,11.91,2015-04-03,43.46943599072223,-6.340118726761219,1.0,5,33,34,VALDÉS,4,0,2,0,0,591,711,16,2,0,0
2015330178,21.8,2015-04-03,43.16946775095774,-6.460513660498741,1.0,5,33,11,CANGAS DEL NARCEA,4,0,1,0,0,828,902,5,0,0,0
2015330182,2.0,2015-04-03,43.12444020485255,-5.550283334149899,1.0,5,33,2,ALLER,5,0,0,0,0,455,473,8,2,0,0
2015330183,2.5,2015-04-03,43.28187709755348,-5.385174182054565,1.0,5,33,49,PILOÑA,4,0,2,0,0,201,221,3,1,0,0
2015330184,2.0,2015-04-03,43.24666664667623,-5.199443816174751,1.0,5,33,50,PONGA,4,0,2,0,0,139,178,4,1,0,0
2015330185,1.5,2015-04-03,43.42832800516717,-5.559579768362827,1.0,5,33,76,VILLAVICIOSA,4,1,2,0,0,94,108,3,2,0,0
2015330188,12.0,2015-04-03,43.34388984515208,-5.328334603242119,1.0,5,33,49,PILOÑA,4,1,2,0,0,104,116,3,1,0,0
2015330192,7.0,2015-04-03,43.09588604701069,-6.483794970970668,1.0,5,33,11,CANGAS DEL NARCEA,4,0,2,0,0,340,367,12,2,0,0
2015330193,4.0,2015-04-03,43.36104092805253,-5.31511989643678,1.0,5,33,49,PILOÑA,4,1,2,0,0,41,53,3,1,0,0
2015330197,2.0,2015-04-03,43.21606468116872,-5.5532267512579,1.0,5,33,32,LAVIANA,4,0,2,0,0,121,129,5,1,0,0
2015360121,1.1,2015-04-03,42.333739318746005,-8.554716906955115,1.0,3,36,53,SOUTOMAIOR,4,1,99,0,0,129,189,4,1,968,1374
2015360125,2.2,2015-04-03,42.60662142684779,-8.377603799784545,1.0,3,36,18,FORCAREI,4,0,1,0,0,85,125,19,5,2782,1674
2015370069,3.19,2015-04-03,40.74228354407975,-6.072541864884927,1.0,17,37,273,SAGRADA LA,4,1,2,0,0,75,145,9,1,0,0
2015390083,19.5,2015-04-03,43.1694130243925,-3.7484971406265273,1.0,6,39,97,VEGA DE PAS,4,0,2,0,0,0,480,0,0,0,3004
2015390084,4.0,2015-04-03,43.2889241384726,-3.702922988591838,1.0,6,39,45,MIERA,4,1,2,0,0,75,105,7,0,245,617
2015390085,5.0,2015-04-03,43.166626746723225,-3.76135551566446,1.0,6,39,97,VEGA DE PAS,4,1,2,0,0,0,320,0,0,0,771
2015390086,1.1,2015-04-03,43.33318945857405,-3.694255728369342,1.0,6,39,64,RIOTUERTO,4,1,2,0,0,135,170,12,0,0,170
2015390088,1.9,2015-04-03,43.2660509206594,-4.384107152989808,1.0,6,39,63,RIONANSA,4,1,2,0,0,110,120,7,0,310,308
2015490124,1.21,2015-04-03,41.96860915057519,-6.881115480240436,1.0,17,49,94,HERMISENDE,4,0,99,0,0,96,125,4,0,0,0
2015120015,1.0,2015-04-04,39.81512648578177,-0.3561067179487456,1.0,9,12,106,SONEJA,5,0,0,0,0,463,968,31,4,0,0
2015150063,13.61,2015-04-04,43.04265749246333,-9.227655668748822,1.0,3,15,52,MUXÍA,4,1,5,0,0,312,410,21,6,0,12525
2015150064,2.45,2015-04-04,43.02631465803716,-8.751330423842404,1.0,3,15,77,SANTA COMBA,4,1,99,0,0,100,175,19,7,0,9080
2015190076,5.0,2015-04-04,41.137934937569405,-1.9456382582413048,1.0,11,19,16,ALGAR DE MESA,4,1,1,0,0,168,201,12,2,0,0
2015240116,267.09000000000003,2015-04-04,42.43251916589653,-6.477758352630585,1.0,17,24,115,PONFERRADA,4,1,2,0,0,1869,2861,30,7,0,0
2015240118,3.9,2015-04-04,42.55957313677311,-6.802929148620336,1.0,17,24,59,CORULLON,3,1,99,0,0,328,328,3,2,0,0
2015240119,4.0,2015-04-04,42.52458800832535,-6.019286993115511,1.0,17,24,214,VILLAMEJIL,3,1,31,0,0,67,165,14,1,0,0
2015240120,3.5,2015-04-04,42.72069636235562,-6.446739918954292,1.0,17,24,102,NOCEDA DEL BIERZO,3,1,99,0,0,114,201,4,1,0,0
2015240121,1.51,2015-04-04,42.7793907549956,-6.62709954803901,1.0,17,24,70,FABERO,2,0,11,0,0,268,268,10,3,0,0
2015240122,2.5,2015-04-04,42.69966913515616,-6.462324074034137,1.0,17,24,102,NOCEDA DEL BIERZO,4,1,1,0,0,145,190,20,1,0,0
2015270030,1.07,2015-04-04,42.671288330623575,-7.438438550662258,1.0,3,27,24,"INCIO, O",4,1,4,0,0,39,144,8,2,0,0
2015310069,2.2,2015-04-04,42.75591652352768,-1.826479545387201,1.0,13,31,52,BELASCOÁIN,4,1,99,0,0,-92,182,5,3,0,0
2015320244,1.3,2015-04-04,41.99182307969607,-7.446214212576327,1.0,3,32,21,CASTRELO DO VAL,4,1,1,0,0,80,123,8,2,0,0
2015320246,3.0,2015-04-04,42.21961698796471,-7.212605999352982,1.0,3,32,92,VILARIÑO DE CONSO,4,1,1,0,0,121,150,9,4,0,0
2015330201,5.0,2015-04-04,43.33800301328437,-5.044838357421817,1.0,5,33,12,CANGAS DE ONÍS,4,1,2,0,0,435,436,1,0,0,0
2015330202,1.1,2015-04-04,43.186907641094834,-6.569836638407359,1.0,5,33,11,CANGAS DEL NARCEA,4,0,1,0,0,118,123,3,1,0,0
2015330204,4.0,2015-04-04,43.11938224330018,-6.631107231836657,1.0,5,33,11,CANGAS DEL NARCEA,5,0,0,0,0,190,245,8,2,0,0
2015330206,13.0,2015-04-04,43.32133134412555,-6.080105274145479,1.0,5,33,26,GRADO,5,0,0,0,0,122,318,10,3,0,0
2015330209,2.0,2015-04-04,43.371221195790106,-6.445885577759533,1.0,5,33,73,TINEO,4,0,2,0,0,129,141,1,0,0,0
2015330211,3.0,2015-04-04,43.28522680655473,-5.909612355662226,1.0,5,33,38,MORCÍN,4,1,2,0,0,130,135,5,1,0,0
2015360130,1.42,2015-04-04,42.1513351464238,-8.627928247666585,1.0,3,36,39,"PORRIÑO, O",4,1,99,0,0,63,159,25,4,4209,4871
2015360131,1.99,2015-04-04,42.59714750575102,-8.744194344593339,1.0,3,36,60,VILAGARCÍA DE AROUSA,4,1,10,0,0,102,207,22,5,1945,1048
2015390089,20.5,2015-04-04,43.23179442272694,-3.765331216507208,1.0,6,39,82,SELAYA,4,1,2,0,0,0,205,0,0,0,3158
2015400007,3.11,2015-04-04,41.43096021442621,-3.99372987793616,1.0,17,40,92,FUENTIDUEÑA,4,1,2,0,0,13,107,3,1,0,0
2015490126,3.73,2015-04-04,41.97015525474708,-6.883055593624041,1.0,17,49,94,HERMISENDE,4,0,1,0,0,96,131,11,1,0,0
2015490128,27.6,2015-04-04,42.12698635031987,-6.944972375187661,1.0,17,49,154,PÍAS,4,0,1,0,0,976,1040,5,1,0,0
2015150065,6.92,2015-04-05,43.682284809920894,-7.750834459283003,1.0,3,15,61,ORTIGUEIRA,2,1,30,0,0,197,323,35,5,0,32336
2015150066,17.28,2015-04-05,43.14921639373277,-8.5244179954747,1.0,3,15,24,CERCEDA,4,1,1,0,0,155,276,31,3,0,10256
2015150069,3.15,2015-04-05,43.50831400535529,-7.777982865720048,1.0,3,15,70,"PONTES DE GARCIA RODRIGUEZ, AS",4,1,2,0,0,128,214,8,1,0,0
2015150071,79.11,2015-04-05,43.61982764064668,-7.799026789986263,1.0,3,15,61,ORTIGUEIRA,4,0,2,0,0,966,1265,83,13,0,29894
2015240125,12.5,2015-04-05,42.67259033859299,-6.507358091431801,1.0,17,24,169,TORENO,4,1,19,0,0,533,1345,13,9,0,0
2015240126,6.15,2015-04-05,42.77133010183201,-6.874771657942432,1.0,17,24,209,VILLAFRANCA DEL BIERZO,4,1,5,0,0,198,344,30,4,0,0
2015270033,2.16,2015-04-05,42.78939977151119,-7.715060250592277,1.0,3,27,49,PORTOMARÍN,4,1,99,0,0,85,113,6,1,0,0
2015270034,1.0,2015-04-05,42.76316838759892,-6.943196302432143,1.0,3,27,12,CERVANTES,4,1,1,0,0,12,49,6,0,0,2923
2015320253,4.15,2015-04-05,41.99226338823998,-7.5330553323930864,1.0,3,32,28,CUALEDRO,4,1,1,0,0,165,220,31,6,0,0
2015330214,2.0,2015-04-05,43.16244094270967,-5.870723394708108,1.0,5,33,33,LENA,4,1,2,0,0,72,91,3,1,0,0
2015330215,1.97,2015-04-05,43.36375304334285,-4.647361407627306,1.0,5,33,36,LLANES,4,0,2,0,0,184,194,3,1,0,0
2015330217,2.0,2015-04-05,43.31275978073757,-5.51996106576546,1.0,5,33,6,BIMENES,4,1,2,0,0,94,104,3,1,0,0
2015330220,2.2,2015-04-05,43.12072681805088,-6.581346252240634,1.0,5,33,11,CANGAS DEL NARCEA,4,0,1,0,0,121,157,11,2,0,0
2015330221,4.0,2015-04-05,43.63156638413216,-5.824513384474892,1.0,5,33,25,GOZÓN,2,0,80,0,0,222,249,9,3,0,0
2015330222,2.0,2015-04-05,43.3041124796212,-5.602096416347738,1.0,5,33,60,SAN MARTÍN DEL REY AURELIO,4,0,2,0,0,79,85,4,2,0,0
2015330225,1.5,2015-04-05,43.3089563771084,-5.61591535906858,1.0,5,33,60,SAN MARTÍN DEL REY AURELIO,2,0,80,0,0,34,49,4,2,0,0
2015330226,5.0,2015-04-05,43.38633362438439,-5.277909722284049,1.0,5,33,49,PILOÑA,4,0,2,0,0,211,219,8,2,0,0
2015330227,11.4,2015-04-05,43.45296059209918,-5.243455805762362,1.0,5,33,19,COLUNGA,4,0,2,0,0,200,333,7,2,0,0
2015360137,4.1,2015-04-05,42.32220702883433,-8.553572487372708,1.0,3,36,53,SOUTOMAIOR,4,1,1,0,0,153,313,25,7,9751,2726
2015360140,2.43,2015-04-05,42.64040054833655,-7.935833304917921,1.0,3,36,47,RODEIRO,4,1,19,0,0,112,133,7,2,1429,0
2015390092,2.9,2015-04-05,43.289138272141216,-3.767664629829233,1.0,6,39,74,SANTA MARIA DE CAYÓN,4,1,2,0,0,90,150,8,0,0,460
2015390093,6.0,2015-04-05,43.32778772173843,-3.7780433812462615,1.0,6,39,37,LIÉRGANES,4,0,2,0,0,120,165,18,2,954,9801
2015490130,3.7,2015-04-05,41.95563784764518,-6.912777630688463,1.0,17,49,94,HERMISENDE,4,0,2,0,0,120,180,16,1,0,0
2015500038,2.46,2015-04-05,41.49425523747683,-1.7978086622543317,1.0,10,50,293,VILLARROYA DE LA SIERRA,5,0,0,0,0,79,147,13,3,0,2
2015050051,254.0,2015-04-06,40.349914226952514,-4.839274535535776,1.0,17,5,167,NAVARREVISCA,4,1,2,0,0,1489,2389,64,10,0,0
2015150073,12.15,2015-04-06,43.121726454547904,-8.770563934422235,1.0,3,15,29,CORISTANCO,4,1,5,0,0,343,387,4,2,0,0
2015150074,1.8,2015-04-06,43.24463903304639,-7.982170310545815,1.0,3,15,3,ARANGA,4,1,1,0,0,115,215,18,4,0,0
2015150076,1.09,2015-04-06,43.49985945276816,-8.26238767613737,1.0,3,15,36,FERROL,4,1,1,0,0,83,191,17,4,0,1675
2015240129,5.28,2015-04-06,42.82049159695971,-6.633699546761308,1.0,17,24,112,PERANZANES,4,1,1,0,0,69,69,10,4,0,0
2015270035,7.0,2015-04-06,42.85214706391936,-6.983729384977784,1.0,3,27,12,CERVANTES,4,1,4,0,0,275,285,15,3,0,0
2015270036,11.0,2015-04-06,42.76774694141084,-6.916033898255653,1.0,3,27,12,CERVANTES,4,1,2,0,0,177,280,13,0,0,0
2015270037,1.7,2015-04-06,42.86117158685049,-7.055642942927228,1.0,3,27,12,CERVANTES,4,1,5,0,0,119,221,14,2,0,0
2015270039,1.8,2015-04-06,43.71578423720258,-7.498378820094132,1.0,3,27,25,XOVE,4,1,19,0,0,60,175,5,1,0,7210
2015320262,1.0,2015-04-06,41.985876184946974,-7.797825833344968,1.0,3,32,12,"BLANCOS, OS",4,1,1,0,0,174,190,6,1,0,0
2015320263,1.37,2015-04-06,41.84844151379436,-7.544573591864184,1.0,3,32,53,OÍMBRA,4,1,1,0,0,81,174,21,3,0,0
2015320264,4.24,2015-04-06,42.17863181928541,-7.193685878496914,1.0,3,32,92,VILARIÑO DE CONSO,4,1,1,0,0,109,126,26,6,0,0
2015320266,4.0,2015-04-06,41.90827824917429,-8.138922530835151,1.0,3,32,30,ENTRIMO,4,1,99,0,0,190,280,26,3,0,15229
2015330235,2.5,2015-04-06,43.3771904655295,-5.246263122686423,1.0,5,33,49,PILOÑA,4,1,2,0,0,68,131,2,3,0,0
2015330237,3.0,2015-04-06,43.31272458654259,-5.317353205515324,1.0,5,33,49,PILOÑA,5,0,0,0,0,27,73,3,1,0,0
2015330239,2.0,2015-04-06,43.27410961617988,-5.58070601170256,1.0,5,33,60,SAN MARTÍN DEL REY AURELIO,2,0,80,0,0,71,113,3,1,0,0
2015330241,2.0,2015-04-06,43.3374436075721,-5.290414590814708,1.0,5,33,49,PILOÑA,4,0,2,0,0,13,40,3,1,0,0
2015330242,6.0,2015-04-06,43.33594504442256,-5.972612696522273,1.0,5,33,44,OVIEDO,4,1,2,0,0,146,156,4,1,0,0
2015330245,6.0,2015-04-06,43.34761310119568,-5.213894995139032,1.0,5,33,45,PARRES,4,1,2,0,0,61,75,3,1,0,0
2015330246,33.56,2015-04-06,43.28968879381399,-6.320766870450964,1.0,5,33,5,BELMONTE DE MIRANDA,4,0,4,0,0,56,78,3,2,0,0
2015330247,28.0,2015-04-06,43.40105908810016,-5.079287944870249,1.0,5,33,12,CANGAS DE ONÍS,4,1,2,0,0,1322,1374,13,3,0,0
2015330249,10.0,2015-04-06,43.37411188820065,-5.17734788132486,1.0,5,33,45,PARRES,4,1,2,0,0,205,215,0,0,0,0
2015331542,26.2,2015-04-06,43.13250936041931,-6.399798241235429,1.0,5,33,11,CANGAS DEL NARCEA,4,1,2,0,0,0,1,0,0,0,0
2015360143,2.4,2015-04-06,42.14908802197184,-8.560443051539208,1.0,3,36,42,PONTEAREAS,4,1,99,0,0,157,320,12,3,3087,4453
2015390094,1.0,2015-04-06,43.365891081852034,-3.258000634055439,1.0,6,39,20,CASTRO-URDIALES,2,0,30,0,0,75,180,5,0,243,155
2015390095,20.0,2015-04-06,43.171135644281016,-3.8499424785391994,1.0,6,39,97,VEGA DE PAS,4,1,2,0,0,270,330,17,2,1369,26949
2015390096,20.8,2015-04-06,43.16886116738825,-3.828566383088316,1.0,6,39,97,VEGA DE PAS,4,1,2,0,0,375,420,14,1,1714,3981
2015390097,11.46,2015-04-06,43.246124450308926,-3.776818425730839,1.0,6,39,98,VILLACARRIEDO,4,1,2,0,0,0,270,0,0,0,1776
2015390098,9.6,2015-04-06,43.26329047995101,-3.652344481182233,1.0,6,39,7,ARREDONDO,4,0,2,0,0,95,95,7,0,175,1493
2015390099,5.5,2015-04-06,43.24311482653247,-3.7278435975583055,1.0,6,39,72,SAN ROQUE DE RIOMIERA,4,1,2,0,0,0,300,0,0,0,979
2015390100,3.0,2015-04-06,43.39026462488939,-3.270389366057225,1.0,6,39,20,CASTRO-URDIALES,4,0,2,0,0,120,230,5,1,410,463
2015390101,4.0,2015-04-06,43.25792813941008,-3.748668804234392,1.0,6,39,72,SAN ROQUE DE RIOMIERA,4,1,2,0,0,0,270,0,0,0,616
2015390102,5.72,2015-04-06,43.31481491973412,-3.664832536659493,1.0,6,39,64,RIOTUERTO,4,1,2,0,0,0,378,0,0,0,382
2015490133,1.22,2015-04-06,41.75178704974108,-6.135292102525495,1.0,17,49,87,GALLEGOS DEL RIO,4,0,1,0,0,120,150,0,0,0,0
2015490134,1.24,2015-04-06,41.99544318724608,-5.723561285074322,1.0,17,49,200,STA CRISTINA DE LA POLVOROSA,4,0,99,0,0,35,50,3,0,0,0
2015090031,8.0,2015-04-07,41.95486985657872,-3.238500491398089,1.0,17,9,84,CASTRILLO DE LA REINA,4,1,2,0,0,122,28661,30,3,0,0
2015130059,1.6,2015-04-07,38.90109171488789,-3.0243679719854297,1.0,11,13,10,ALHAMBRA,5,0,0,0,0,115,129,7,1,0,0
2015150079,2.35,2015-04-07,42.982049724262765,-8.415813461271743,1.0,3,15,60,OROSO,4,1,19,0,0,80,145,26,4,0,7536
2015150082,2.13,2015-04-07,43.163738575997314,-8.534736921112176,1.0,3,15,24,CERCEDA,4,1,5,0,0,113,185,11,2,0,4817
2015270041,2.5,2015-04-07,42.90958316545066,-7.1045678026726495,1.0,3,27,6,BECERREÁ,4,1,2,0,0,158,175,11,2,0,0
2015320269,2.67,2015-04-07,41.95307982852613,-7.544632255749836,1.0,3,32,28,CUALEDRO,4,1,1,0,0,140,165,12,2,0,0
2015320271,1.42,2015-04-07,42.035717773575605,-7.041257113151849,1.0,3,32,48,"MEZQUITA, A",4,1,1,0,0,48,82,5,0,0,0
2015320272,10.0,2015-04-07,42.01249907175551,-6.986563768036752,1.0,3,32,48,"MEZQUITA, A",4,1,1,0,0,238,317,22,6,0,0
2015320273,6.0,2015-04-07,42.28555448915648,-7.708758311382261,1.0,3,32,55,PADERNE DE ALLARIZ,2,1,80,0,0,165,308,22,9,0,5955
2015320281,1.0,2015-04-07,42.37956587986215,-7.393700797783922,1.0,3,32,23,CASTRO CALDELAS,4,0,1,0,0,130,140,8,1,0,0
2015320282,1.14,2015-04-07,42.00100604915377,-7.058079246918831,1.0,3,32,48,"MEZQUITA, A",5,0,0,0,0,161,171,10,1,0,6486
2015320284,47.94,2015-04-07,42.04225590926179,-6.980465217479388,1.0,3,32,48,"MEZQUITA, A",4,1,5,0,0,817,1071,47,7,0,0
2015320285,1.63,2015-04-07,41.97793560624081,-7.0684122822529805,1.0,3,32,48,"MEZQUITA, A",4,1,2,0,0,147,166,8,1,0,0
2015320286,5.81,2015-04-07,42.08030383463896,-7.214950653353578,1.0,3,32,34,"GUDIÑA, A",4,1,1,0,0,208,243,9,1,0,0
2015330251,5.0,2015-04-07,43.42987136523034,-6.435363947687097,1.0,5,33,34,VALDÉS,4,1,2,0,0,52,56,0,0,0,0
2015330255,92.2,2015-04-07,43.43290853638586,-6.591935677931606,1.0,5,33,73,TINEO,4,0,2,0,0,359,1319,29,5,0,0
2015330256,4.3,2015-04-07,43.41495247908183,-4.882889588481825,1.0,5,33,36,LLANES,2,0,80,0,0,182,208,14,3,0,0
2015330257,4.0,2015-04-07,43.36100359870471,-6.125970937715094,1.0,5,33,26,GRADO,2,0,80,0,0,137,162,8,2,0,0
2015330258,3.2,2015-04-07,43.138416423557,-6.6059776600798426,1.0,5,33,11,CANGAS DEL NARCEA,4,0,4,0,0,109,135,5,2,0,0
2015330261,14.82,2015-04-07,43.28516756965121,-6.237500636112953,1.0,5,33,5,BELMONTE DE MIRANDA,2,0,82,0,0,117,207,4,2,0,0
2015330262,1.5,2015-04-07,43.31929204898184,-5.870309516238188,1.0,5,33,57,RIBERA DE ARRIBA,5,0,0,0,0,162,172,2,0,0,0
2015330265,1.3,2015-04-07,43.34633301266139,-6.348181016819633,1.0,5,33,73,TINEO,4,1,2,0,0,101,116,3,2,0,0
2015331544,31.3,2015-04-07,43.32254218532028,-4.766075191769189,1.0,5,33,46,PEÑAMELLERA ALTA,4,1,99,0,0,0,1,0,0,0,0
